TeamNo,PackageNo,Time,Hour,Pressure,Height,DescentRate,Temperature,Voltage,Latitude,Longitude,Altitude,Satellitestatus,Pitch,Roll,Yaw,RollingCount,TransferringStatus
319,1,26:08:21,11:22:02,1017.27,-2.4,-2.4,35,3.21,40.742802,29.941916,-3.9,BEKLEMEDE,0,0,0,0,EVET
62319,2,26:08:21,11:22:03,1017.33,-2.9,-0.5,35,3.22,40.742809,29.941916,-2.9,KURTARMA,29,269,86,0,EVET
62319,3,26:08:21,11:22:04,1017.32,-2.8,0.1,35,3.23,40.742809,29.941916,-2.9,KURTARMA,31,270,87,0,EVET
62319,4,26:08:21,11:22:05,1017.36,-3.2,-0.3,35,3.23,40.742809,29.941916,-2.9,KURTARMA,23,254,89,0,EVET
62319,5,26:08:21,11:22:06,1017.34,-3.0,0.1,35,3.23,40.742809,29.941916,-2.9,KURTARMA,24,28,86,0,EVET
62319,6,26:08:21,11:22:07,1017.33,-2.9,0.1,35,3.22,40.742809,29.941916,-2.9,KURTARMA,25,11,87,0,EVET
62319,7,26:08:21,11:22:08,1017.29,-2.5,0.4,35,3.22,40.742809,29.941916,-2.9,KURTARMA,22,36,80,0,EVET
62319,8,26:08:21,11:22:09,1017.30,-2.7,-0.1,35,3.23,40.742741,29.941988,-4.9,KURTARMA,25,48,72,0,EVET
62319,9,26:08:21,11:22:10,1017.27,-2.3,0.3,35,3.23,40.742794,29.941956,1.6,KURTARMA,22,38,80,0,EVET
62319,10,26:08:21,11:22:11,1017.24,-2.1,0.2,35,3.23,40.742805,29.941944,9.4,KURTARMA,20,32,83,0,EVET
62319,11,26:08:21,11:22:12,1017.26,-2.3,-0.1,35,3.23,40.742802,29.941935,16.8,KURTARMA,18,27,85,0,EVET
62319,12,26:08:21,11:22:13,1017.28,-2.5,-0.2,35,3.23,40.742805,29.941977,20.5,KURTARMA,16,26,86,0,EVET
62319,13,26:08:21,11:22:14,1017.29,-2.6,-0.1,35,3.21,40.742794,29.941967,22.8,KURTARMA,15,23,86,0,EVET
62319,14,26:08:21,11:22:15,1017.34,-3.0,-0.4,35,3.23,40.742783,29.941963,23.8,KURTARMA,21,23,85,0,EVET
62319,15,26:08:21,11:22:16,1017.33,-2.9,0.1,35,3.23,40.742783,29.941948,28.3,KURTARMA,13,21,87,0,EVET
62319,16,26:08:21,11:22:17,1017.29,-2.5,0.4,35,3.22,40.742786,29.941927,31.4,KURTARMA,14,19,86,0,EVET
62319,17,26:08:21,11:22:18,1017.36,-3.2,-0.6,35,3.22,40.742786,29.941919,30.2,KURTARMA,14,24,89,0,EVET
62319,18,26:08:21,11:22:19,1017.28,-2.5,0.7,35,3.22,40.742775,29.941916,30.9,KURTARMA,14,16,88,0,EVET
62319,19,26:08:21,11:22:20,1017.31,-2.7,-0.2,35,3.22,40.742760,29.941916,26.8,KURTARMA,19,14,88,0,EVET
62319,20,26:08:21,11:22:21,1017.31,-2.8,-0.1,35,3.22,40.742748,29.941931,27.2,KURTARMA,20,11,88,0,EVET
62319,21,26:08:21,11:22:22,1017.32,-2.9,-0.1,35,3.23,40.742741,29.941938,27.3,KURTARMA,19,13,88,0,EVET
62319,22,26:08:21,11:22:23,1017.31,-2.7,0.1,35,3.22,40.742729,29.941948,27.4,KURTARMA,17,8,88,0,EVET
62319,23,26:08:21,11:22:24,1017.33,-2.9,-0.2,35,3.22,40.742729,29.941956,28.6,KURTARMA,21,8,89,0,EVET
62319,24,26:08:21,11:22:25,1017.32,-2.8,0.1,35,3.23,40.742729,29.941959,30.9,KURTARMA,24,8,87,0,EVET
62319,25,26:08:21,11:22:26,1017.28,-2.5,0.3,35,3.22,40.742733,29.941959,32.4,KURTARMA,24,9,87,0,EVET
62319,26,26:08:21,11:22:27,1017.30,-2.7,-0.2,35,3.22,40.742729,29.941959,27.6,KURTARMA,23,12,87,0,EVET
62319,27,26:08:21,11:22:28,1017.34,-3.0,-0.3,35,3.23,40.742722,29.941963,26.3,KURTARMA,21,11,87,0,EVET
62319,28,26:08:21,11:22:29,1017.34,-3.0,0.0,35,3.23,40.742722,29.941959,25.6,KURTARMA,18,10,88,0,EVET
62319,29,26:08:21,11:22:30,1017.34,-3.0,-0.0,35,3.22,40.742722,29.941959,25.5,KURTARMA,13,6,90,0,EVET
62319,30,26:08:21,11:22:31,1017.27,-2.4,0.6,35,3.22,40.742725,29.941967,25.2,KURTARMA,14,4,90,0,EVET
62319,31,26:08:21,11:22:32,1017.31,-2.7,-0.3,35,3.22,40.742733,29.941956,23.6,KURTARMA,14,6,89,0,EVET
62319,32,26:08:21,11:22:33,1017.27,-2.4,0.4,35,3.23,40.742737,29.941952,23.2,KURTARMA,13,14,89,0,EVET
62319,33,26:08:21,11:22:34,1017.28,-2.5,-0.1,35,3.23,40.742737,29.941952,23.2,KURTARMA,12,8,90,0,EVET
62319,34,26:08:21,11:22:35,1017.32,-2.8,-0.4,34,3.22,40.742737,29.941952,23.2,KURTARMA,18,8,88,0,EVET
62319,35,26:08:21,11:22:36,1017.34,-3.0,-0.2,34,3.23,40.742737,29.941952,23.2,KURTARMA,14,13,89,0,EVET
62319,36,26:08:21,11:22:37,1017.28,-2.5,0.5,34,3.22,40.742737,29.941952,23.2,KURTARMA,14,19,89,0,EVET
62319,37,26:08:21,11:22:38,1017.30,-2.6,-0.1,34,3.22,40.742737,29.941952,23.2,KURTARMA,16,10,89,0,EVET
62319,38,26:08:21,11:22:39,1017.27,-2.4,0.3,34,3.23,40.742741,29.941959,25.3,KURTARMA,20,9,90,0,EVET
62319,39,26:08:21,11:22:40,1017.26,-2.3,0.0,34,3.22,40.742752,29.941956,23.2,KURTARMA,10,106,90,0,EVET
62319,40,26:08:21,11:22:41,1017.30,-2.6,-0.3,34,3.23,40.742764,29.941959,20.8,KURTARMA,19,154,88,0,EVET
62319,41,26:08:21,11:22:42,1017.28,-2.5,0.2,34,3.23,40.742771,29.941967,20.0,KURTARMA,11,241,90,0,EVET
62319,42,26:08:21,11:22:43,1017.32,-2.8,-0.4,34,3.23,40.742775,29.941973,19.7,KURTARMA,13,61,89,0,EVET
62319,43,26:08:21,11:22:44,1017.34,-3.0,-0.2,34,3.20,40.742783,29.941963,19.5,KURTARMA,12,350,91,0,EVET
62319,44,26:08:21,11:22:45,1017.27,-2.4,0.6,34,3.22,40.742783,29.941963,19.5,KURTARMA,13,220,89,0,EVET
62319,45,26:08:21,11:22:46,1017.32,-2.8,-0.5,34,3.23,40.742783,29.941963,19.5,KURTARMA,14,61,90,0,EVET
62319,46,26:08:21,11:22:47,1017.25,-2.2,0.6,34,3.22,40.742783,29.941963,19.5,KURTARMA,17,104,89,0,EVET
62319,47,26:08:21,11:22:48,1017.28,-2.4,-0.2,34,3.21,40.742783,29.941963,19.5,KURTARMA,18,5,89,0,EVET
62319,48,26:08:21,11:22:49,1017.32,-2.8,-0.4,34,3.23,40.742786,29.941948,19.6,KURTARMA,17,3,89,0,EVET
62319,49,26:08:21,11:22:50,1017.33,-2.9,-0.1,34,3.22,40.742779,29.941948,19.0,KURTARMA,17,4,89,0,EVET
62319,50,26:08:21,11:22:51,1017.29,-2.6,0.3,34,3.23,40.742783,29.941938,23.7,KURTARMA,16,5,89,0,EVET
62319,51,26:08:21,11:22:52,1017.30,-2.7,-0.1,34,3.23,40.742775,29.941944,23.3,KURTARMA,16,10,89,0,EVET
62319,52,26:08:21,11:22:53,1017.29,-2.5,0.2,34,3.22,40.742771,29.941935,18.3,KURTARMA,27,49,90,0,EVET
62319,53,26:08:21,11:22:54,1017.27,-2.4,0.2,34,3.23,40.742779,29.941919,17.9,KURTARMA,16,13,88,0,EVET
62319,54,26:08:21,11:22:55,1017.28,-2.5,-0.1,34,3.23,40.742764,29.941927,18.2,KURTARMA,14,11,89,0,EVET
62319,55,26:08:21,11:22:56,1017.25,-2.2,0.3,34,3.22,40.742741,29.941931,19.1,KURTARMA,14,8,89,0,EVET
62319,56,26:08:21,11:22:57,1017.26,-2.3,-0.1,34,3.23,40.742729,29.941923,18.1,KURTARMA,14,7,89,0,EVET
62319,57,26:08:21,11:22:58,1017.33,-3.0,-0.7,34,3.21,40.742729,29.941923,18.1,KURTARMA,14,6,89,0,EVET
62319,58,26:08:21,11:22:59,1017.33,-2.9,0.1,34,3.21,40.742691,29.941916,22.6,KURTARMA,14,7,89,0,EVET
62319,59,26:08:21,11:23:00,1017.32,-2.8,0.1,34,3.24,40.742649,29.941912,27.5,KURTARMA,15,6,89,0,EVET
62319,60,26:08:21,11:23:01,1017.32,-2.8,-0.0,34,3.23,40.742638,29.941906,30.0,KURTARMA,14,3,90,0,EVET
62319,61,26:08:21,11:23:02,1017.32,-2.8,0.0,34,3.23,40.742619,29.941912,32.7,KURTARMA,14,9,90,0,EVET
62319,62,26:08:21,11:23:03,1017.29,-2.6,0.2,34,3.22,40.742615,29.941906,33.4,KURTARMA,13,1,90,0,EVET
62319,63,26:08:21,11:23:04,1017.23,-2.0,0.6,34,3.22,40.742638,29.941874,30.2,KURTARMA,13,30,90,0,EVET
62319,64,26:08:21,11:23:05,1017.29,-2.6,-0.5,34,3.23,40.742638,29.941883,28.0,KURTARMA,38,13,80,0,EVET
62319,65,26:08:21,11:23:06,1017.32,-2.9,-0.3,34,3.23,40.742653,29.941854,25.9,KURTARMA,77,4,47,0,EVET
62319,66,26:08:21,11:23:07,1017.34,-3.0,-0.1,34,3.22,40.742661,29.941837,23.4,KURTARMA,89,2,21,0,EVET
62319,67,26:08:21,11:23:08,1017.37,-3.3,-0.3,34,3.21,40.742683,29.941816,26.5,KURTARMA,90,74,10,0,EVET
62319,68,26:08:21,11:23:09,1017.30,-2.6,0.6,34,3.22,40.742691,29.941805,21.1,KURTARMA,91,351,11,0,EVET
62319,69,26:08:21,11:23:10,1017.32,-2.8,-0.2,34,3.22,40.742695,29.941801,20.3,KURTARMA,91,356,9,0,EVET
62319,70,26:08:21,11:23:11,1017.27,-2.4,0.5,34,3.23,40.742699,29.941805,20.5,KURTARMA,91,356,16,0,EVET
62319,71,26:08:21,11:23:12,1017.34,-3.0,-0.6,34,3.22,40.742699,29.941813,21.2,KURTARMA,90,355,271,0,EVET
62319,72,26:08:21,11:23:13,1017.27,-2.4,0.6,34,3.22,40.742710,29.941822,20.7,KURTARMA,90,348,184,0,EVET
62319,73,26:08:21,11:23:14,1017.27,-2.4,0.0,34,3.23,40.742718,29.941833,20.9,KURTARMA,85,336,344,0,EVET
62319,74,26:08:21,11:23:15,1017.32,-2.8,-0.4,34,3.23,40.742725,29.941833,20.5,KURTARMA,87,336,350,0,EVET
62319,75,26:08:21,11:23:16,1017.32,-2.9,-0.0,34,3.22,40.742737,29.941830,18.6,KURTARMA,87,337,344,0,EVET
62319,76,26:08:21,11:23:17,1017.29,-2.6,0.3,34,3.22,40.742748,29.941841,16.9,KURTARMA,87,336,342,0,EVET
62319,77,26:08:21,11:23:18,1017.30,-2.6,-0.0,34,3.23,40.742752,29.941851,15.4,KURTARMA,87,338,36,0,EVET
62319,78,26:08:21,11:23:19,1017.29,-2.6,0.1,34,3.22,40.742756,29.941858,14.1,KURTARMA,70,339,50,0,EVET
62319,79,26:08:21,11:23:20,1017.30,-2.7,-0.1,35,3.22,40.742756,29.941862,14.6,KURTARMA,38,61,61,0,EVET
62319,80,26:08:21,11:23:21,1017.33,-2.9,-0.2,35,3.21,40.742764,29.941870,14.5,KURTARMA,26,88,184,0,EVET
62319,81,26:08:21,11:23:22,1017.34,-3.1,-0.2,34,3.23,40.742771,29.941877,14.6,KURTARMA,23,90,17,0,EVET
62319,82,26:08:21,11:23:23,1017.34,-3.0,0.0,34,3.22,40.742775,29.941883,14.6,KURTARMA,26,88,46,0,EVET
62319,83,26:08:21,11:23:24,1017.31,-2.7,0.3,34,3.23,40.742779,29.941887,15.0,KURTARMA,25,88,31,0,EVET
62319,84,26:08:21,11:23:25,1017.37,-3.3,-0.5,34,3.22,40.742786,29.941895,14.3,KURTARMA,25,88,16,0,EVET
62319,85,26:08:21,11:23:26,1017.34,-3.0,0.2,34,3.22,40.742786,29.941898,13.7,KURTARMA,29,84,19,0,EVET
62319,86,26:08:21,11:23:27,1017.27,-2.4,0.6,34,3.21,40.742783,29.941902,12.8,KURTARMA,40,29,75,0,EVET
62319,87,26:08:21,11:23:28,1017.32,-2.8,-0.4,34,3.22,40.742786,29.941906,12.7,KURTARMA,42,34,79,0,EVET
62319,88,26:08:21,11:23:29,1017.31,-2.7,0.1,34,3.21,40.742786,29.941912,12.9,KURTARMA,35,299,84,0,EVET
62319,89,26:08:21,11:23:30,1017.26,-2.3,0.5,34,3.22,40.742779,29.941912,12.4,KURTARMA,32,242,85,0,EVET
62319,90,26:08:21,11:23:31,1017.28,-2.4,-0.2,34,3.22,40.742775,29.941919,11.4,KURTARMA,31,249,85,0,EVET
62319,91,26:08:21,11:23:32,1017.26,-2.3,0.1,34,3.22,40.742771,29.941923,11.2,KURTARMA,30,88,84,0,EVET
62319,92,26:08:21,11:23:33,1017.22,-1.9,0.4,34,3.23,40.742771,29.941923,11.1,KURTARMA,22,23,84,0,EVET
62319,93,26:08:21,11:23:34,1017.28,-2.4,-0.5,34,3.22,40.742760,29.941927,11.2,KURTARMA,10,19,89,0,EVET
62319,94,26:08:21,11:23:35,1017.24,-2.1,0.3,34,3.22,40.742756,29.941935,12.9,KURTARMA,18,18,90,0,EVET
62319,95,26:08:21,11:23:36,1017.26,-2.3,-0.2,34,3.22,40.742760,29.941935,10.8,KURTARMA,15,29,85,0,EVET
62319,96,26:08:21,11:23:37,1017.31,-2.7,-0.4,34,3.21,40.742760,29.941938,12.9,KURTARMA,99,33,84,0,EVET
62319,97,26:08:21,11:23:38,1017.28,-2.4,0.3,34,3.21,40.742756,29.941944,12.0,KURTARMA,30,30,87,0,EVET
62319,98,26:08:21,11:23:39,1017.24,-2.1,0.3,34,3.22,40.742760,29.941938,10.8,KURTARMA,19,34,80,0,EVET
62319,99,26:08:21,11:23:40,1017.31,-2.7,-0.6,34,3.21,40.742760,29.941938,10.7,KURTARMA,15,34,83,0,EVET
62319,100,26:08:21,11:23:41,1017.25,-2.2,0.5,34,3.22,40.742760,29.941944,10.5,KURTARMA,18,32,83,0,EVET
62319,101,26:08:21,11:23:42,1017.27,-2.4,-0.2,34,3.21,40.742760,29.941948,9.2,KURTARMA,19,29,85,0,EVET
62319,102,26:08:21,11:23:43,1017.27,-2.4,0.0,34,3.22,40.742760,29.941952,8.5,KURTARMA,25,24,83,0,EVET
62319,103,26:08:21,11:23:44,1017.24,-2.1,0.3,34,3.22,40.742756,29.941952,7.5,KURTARMA,27,18,84,0,EVET
62319,104,26:08:21,11:23:45,1017.29,-2.5,-0.4,34,3.22,40.742737,29.941948,10.4,KURTARMA,25,16,85,0,EVET
62319,105,26:08:21,11:23:46,1017.29,-2.5,-0.0,34,3.21,40.742725,29.941938,10.6,KURTARMA,26,16,86,0,EVET
62319,106,26:08:21,11:23:47,1017.28,-2.5,0.0,34,3.22,40.742718,29.941935,9.9,KURTARMA,24,18,86,0,EVET
62319,107,26:08:21,11:23:48,1017.24,-2.1,0.4,34,3.22,40.742714,29.941935,9.2,KURTARMA,22,18,86,0,EVET
62319,108,26:08:21,11:23:49,1017.24,-2.2,-0.0,34,3.22,40.742710,29.941935,9.1,KURTARMA,20,16,87,0,EVET
62319,109,26:08:21,11:23:50,1017.24,-2.1,0.1,34,3.22,40.742702,29.941935,9.2,KURTARMA,19,114,89,0,EVET
62319,110,26:08:21,11:23:51,1017.27,-2.4,-0.3,34,3.22,40.742702,29.941935,10.1,KURTARMA,22,68,87,0,EVET
62319,111,26:08:21,11:23:52,1017.23,-2.0,0.4,34,3.22,40.742710,29.941931,11.1,KURTARMA,24,298,89,0,EVET
62319,112,26:08:21,11:23:53,1017.25,-2.2,-0.2,34,3.21,40.742702,29.941927,12.0,KURTARMA,34,287,83,0,EVET
62319,113,26:08:21,11:23:54,1017.28,-2.5,-0.3,34,3.21,40.742702,29.941927,13.0,KURTARMA,27,331,86,0,EVET
62319,114,26:08:21,11:23:55,1017.29,-2.6,-0.1,34,3.22,40.742702,29.941927,14.2,KURTARMA,22,333,88,0,EVET
62319,115,26:08:21,11:23:56,1017.30,-2.6,-0.1,34,3.23,40.742691,29.941931,16.7,KURTARMA,27,325,87,0,EVET
62319,116,26:08:21,11:23:57,1017.29,-2.6,0.0,34,3.21,40.742691,29.941931,16.7,KURTARMA,27,162,87,0,EVET
62319,117,26:08:21,11:23:58,1017.25,-2.2,0.4,34,3.22,40.742691,29.941931,16.7,KURTARMA,21,140,88,0,EVET
62319,118,26:08:21,11:23:59,1017.25,-2.3,-0.1,34,3.22,40.742691,29.941931,16.7,KURTARMA,23,357,88,0,EVET
62319,119,26:08:21,11:24:00,1017.27,-2.4,-0.1,34,3.22,40.742691,29.941931,16.7,KURTARMA,22,358,88,0,EVET
62319,120,26:08:21,11:24:01,1017.28,-2.4,-0.0,34,3.22,40.742691,29.941931,16.7,KURTARMA,24,191,88,0,EVET
62319,121,26:08:21,11:24:02,1017.27,-2.4,0.0,34,3.21,40.742691,29.941931,16.7,KURTARMA,26,120,87,0,EVET
62319,122,26:08:21,11:24:03,1017.29,-2.6,-0.2,34,3.20,40.742691,29.941931,16.7,KURTARMA,22,5,88,0,EVET
62319,123,26:08:21,11:24:04,1017.28,-2.4,0.1,34,3.22,40.742691,29.941931,16.7,KURTARMA,27,91,87,0,EVET
62319,124,26:08:21,11:24:05,1017.28,-2.5,-0.1,34,3.22,40.742691,29.941931,16.7,KURTARMA,27,177,86,0,EVET
62319,125,26:08:21,11:24:06,1017.28,-2.5,0.0,34,3.20,40.742710,29.942009,16.6,KURTARMA,22,83,88,0,EVET
62319,126,26:08:21,11:24:07,1017.26,-2.3,0.2,34,3.22,40.742714,29.942028,16.7,KURTARMA,23,342,88,0,EVET
62319,127,26:08:21,11:24:08,1017.29,-2.6,-0.3,34,3.21,40.742714,29.942028,16.7,KURTARMA,26,332,85,0,EVET
62319,128,26:08:21,11:24:09,1017.31,-2.7,-0.1,34,3.22,40.742714,29.942028,16.7,KURTARMA,23,63,90,0,EVET
62319,129,26:08:21,11:24:10,1017.31,-2.8,-0.0,34,3.21,40.742718,29.942024,16.2,KURTARMA,21,211,89,0,EVET
62319,130,26:08:21,11:24:11,1017.31,-2.8,0.0,34,3.20,40.742729,29.941996,16.4,KURTARMA,24,324,87,0,EVET
62319,131,26:08:21,11:24:12,1017.26,-2.3,0.4,34,3.21,40.742744,29.941996,16.6,KURTARMA,26,302,87,0,EVET
62319,132,26:08:21,11:24:13,1017.29,-2.6,-0.3,34,3.21,40.742748,29.941992,16.5,KURTARMA,24,336,86,0,EVET
62319,133,26:08:21,11:24:14,1017.21,-1.8,0.7,34,3.21,40.742748,29.941992,16.3,KURTARMA,18,331,82,0,EVET
62319,134,26:08:21,11:24:15,1017.28,-2.4,-0.6,34,3.21,40.742748,29.941992,16.3,KURTARMA,24,267,90,0,EVET
62319,135,26:08:21,11:24:16,1017.29,-2.5,-0.1,34,3.21,40.742748,29.941992,16.3,KURTARMA,23,299,88,0,EVET
62319,136,26:08:21,11:24:17,1017.31,-2.7,-0.2,34,3.21,40.742760,29.941999,16.2,KURTARMA,22,323,88,0,EVET
62319,137,26:08:21,11:24:18,1017.29,-2.6,0.1,34,3.23,40.742744,29.941992,15.5,KURTARMA,30,341,83,0,EVET
62319,138,26:08:21,11:24:19,1017.30,-2.6,-0.1,35,3.22,40.742741,29.941984,15.3,KURTARMA,35,325,96,0,EVET
62319,139,26:08:21,11:24:20,1017.27,-2.4,0.3,35,3.23,40.742741,29.941984,15.2,KURTARMA,17,322,79,0,EVET
62319,140,26:08:21,11:24:21,1017.26,-2.3,0.1,35,3.23,40.742733,29.941977,14.7,KURTARMA,18,298,64,0,EVET
62319,141,26:08:21,11:24:22,1017.24,-2.1,0.2,35,3.23,40.742733,29.941973,14.8,KURTARMA,24,305,67,0,EVET
62319,142,26:08:21,11:24:23,1017.30,-2.7,-0.6,35,3.23,40.742741,29.941973,14.4,KURTARMA,26,297,58,0,EVET
62319,143,26:08:21,11:24:24,1017.28,-2.5,0.2,35,3.22,40.742737,29.941973,14.1,KURTARMA,16,306,73,0,EVET
62319,144,26:08:21,11:24:25,1017.27,-2.4,0.1,35,3.23,40.742737,29.941973,13.8,KURTARMA,32,310,69,0,EVET
62319,145,26:08:21,11:24:26,1017.31,-2.7,-0.3,35,3.23,40.742737,29.941980,13.9,KURTARMA,243,295,67,0,EVET
62319,146,26:08:21,11:24:27,1017.29,-2.5,0.2,35,3.21,40.742733,29.941980,14.4,KURTARMA,342,280,33,0,EVET
62319,147,26:08:21,11:24:28,1017.27,-2.4,0.2,35,3.22,40.742733,29.941980,14.4,KURTARMA,330,279,23,0,EVET
62319,148,26:08:21,11:24:29,1017.28,-2.5,-0.1,35,3.22,40.742733,29.941980,14.4,KURTARMA,321,282,24,0,EVET
62319,149,26:08:21,11:24:30,1017.29,-2.6,-0.1,35,3.22,40.742733,29.941980,14.4,KURTARMA,321,281,80,0,EVET
62319,150,26:08:21,11:24:31,1017.30,-2.7,-0.1,35,3.22,40.742733,29.941980,14.4,KURTARMA,341,280,329,0,EVET
62319,151,26:08:21,11:24:32,1017.32,-2.8,-0.1,35,3.21,40.742725,29.941996,13.8,KURTARMA,327,312,80,0,EVET
62319,152,26:08:21,11:24:33,1017.29,-2.5,0.3,35,3.22,40.742718,29.942024,13.6,KURTARMA,336,316,67,0,EVET
62319,153,26:08:21,11:24:34,1017.32,-2.9,-0.3,35,3.22,40.742718,29.942013,13.7,KURTARMA,314,292,34,0,EVET
62319,154,26:08:21,11:24:35,1017.30,-2.7,0.2,35,3.22,40.742710,29.942017,13.7,KURTARMA,311,286,46,0,EVET
62319,155,26:08:21,11:24:36,1017.38,-3.4,-0.7,35,3.22,40.742710,29.942009,13.8,KURTARMA,313,285,302,0,EVET
62319,156,26:08:21,11:24:37,1017.37,-3.3,0.1,35,3.22,40.742714,29.942005,13.8,KURTARMA,303,293,266,0,EVET
62319,157,26:08:21,11:24:38,1017.27,-2.4,0.9,35,3.22,40.742710,29.942009,13.8,KURTARMA,303,292,311,0,EVET
62319,158,26:08:21,11:24:39,1017.31,-2.7,-0.3,35,3.21,40.742714,29.942020,13.9,KURTARMA,287,309,320,0,EVET
62319,159,26:08:21,11:24:40,1017.33,-2.9,-0.2,35,3.23,40.742714,29.942020,13.9,KURTARMA,284,316,247,0,EVET
62319,160,26:08:21,11:24:41,1017.32,-2.9,0.0,35,3.20,40.742714,29.942020,13.9,KURTARMA,285,313,282,0,EVET
62319,161,26:08:21,11:24:42,1017.38,-3.3,-0.5,35,3.23,40.742714,29.942020,13.9,KURTARMA,288,316,308,0,EVET
62319,162,26:08:21,11:24:43,1017.32,-2.9,0.5,35,3.21,40.742714,29.942020,13.9,KURTARMA,289,313,335,0,EVET
62319,163,26:08:21,11:24:44,1017.33,-3.0,-0.1,35,3.22,40.742714,29.942049,13.7,KURTARMA,282,320,252,0,EVET
62319,164,26:08:21,11:24:45,1017.33,-2.9,0.1,35,3.21,40.742718,29.942060,13.7,KURTARMA,284,317,198,0,EVET
62319,165,26:08:21,11:24:46,1017.31,-2.7,0.2,35,3.22,40.742702,29.942074,13.6,KURTARMA,276,331,129,0,EVET
62319,166,26:08:21,11:24:47,1017.33,-2.9,-0.1,35,3.22,40.742691,29.942078,13.5,KURTARMA,274,329,63,0,EVET
62319,167,26:08:21,11:24:48,1017.29,-2.6,0.3,35,3.22,40.742699,29.942070,13.5,KURTARMA,273,300,232,0,EVET
62319,168,26:08:21,11:24:49,1017.33,-2.9,-0.3,35,3.22,40.742699,29.942070,13.5,KURTARMA,276,67,98,0,EVET
62319,169,26:08:21,11:24:50,1017.31,-2.7,0.2,35,3.23,40.742699,29.942070,13.5,KURTARMA,276,72,250,0,EVET
62319,170,26:08:21,11:24:51,1017.31,-2.8,-0.0,35,3.23,40.742699,29.942070,13.5,KURTARMA,287,40,321,0,EVET
62319,171,26:08:21,11:24:52,1017.27,-2.4,0.4,35,3.23,40.742699,29.942070,13.5,KURTARMA,289,132,71,0,EVET
62319,172,26:08:21,11:24:53,1017.32,-2.8,-0.4,35,3.22,40.742699,29.942070,13.5,KURTARMA,124,275,89,0,EVET
62319,173,26:08:21,11:24:54,1017.35,-3.1,-0.3,35,3.22,40.742699,29.942070,13.5,KURTARMA,16,348,89,0,EVET
62319,174,26:08:21,11:24:55,1017.30,-2.6,0.4,35,3.23,40.742699,29.942070,13.5,KURTARMA,80,314,90,0,EVET
62319,175,26:08:21,11:24:56,1017.27,-2.4,0.3,35,3.22,40.742687,29.942057,13.5,KURTARMA,11,350,87,0,EVET
62319,176,26:08:21,11:24:57,1017.26,-2.3,0.0,35,3.22,40.742687,29.942057,13.5,KURTARMA,32,342,83,0,EVET
62319,177,26:08:21,11:24:58,1017.28,-2.5,-0.2,35,3.21,40.742687,29.942057,13.5,KURTARMA,30,327,79,0,EVET
62319,178,26:08:21,11:24:59,1017.29,-2.6,-0.1,35,3.22,40.742687,29.942057,13.5,KURTARMA,28,332,82,0,EVET
62319,179,26:08:21,11:25:00,1017.32,-2.8,-0.2,35,3.22,40.742687,29.942057,13.5,KURTARMA,29,333,82,0,EVET
62319,180,26:08:21,11:25:01,1017.28,-2.5,0.4,35,3.23,40.742687,29.942057,13.5,KURTARMA,25,336,83,0,EVET
62319,181,26:08:21,11:25:02,1017.29,-2.5,-0.1,35,3.23,40.742687,29.942057,13.5,KURTARMA,25,348,87,0,EVET
62319,182,26:08:21,11:25:03,1017.31,-2.7,-0.2,35,3.23,40.742687,29.942057,13.5,KURTARMA,25,344,88,0,EVET
62319,183,26:08:21,11:25:04,1017.34,-3.0,-0.3,35,3.23,40.742687,29.942057,13.5,KURTARMA,18,252,90,0,EVET
62319,184,26:08:21,11:25:05,1017.26,-2.3,0.7,35,3.22,40.742687,29.942057,13.5,KURTARMA,127,339,89,0,EVET
62319,185,26:08:21,11:25:06,1017.30,-2.7,-0.3,35,3.23,40.742687,29.942057,13.5,KURTARMA,226,315,91,0,EVET
62319,186,26:08:21,11:25:07,1017.28,-2.5,0.2,35,3.22,40.742687,29.942057,13.5,KURTARMA,319,300,89,0,EVET
62319,187,26:08:21,11:25:08,1017.31,-2.8,-0.3,35,3.22,40.742687,29.942057,13.5,KURTARMA,341,326,80,0,EVET
62319,188,26:08:21,11:25:09,1017.30,-2.7,0.1,35,3.23,40.742687,29.942057,13.5,KURTARMA,335,301,77,0,EVET
62319,189,26:08:21,11:25:10,1017.30,-2.6,0.0,35,3.23,40.742687,29.942057,13.5,KURTARMA,347,323,81,0,EVET
62319,190,26:08:21,11:25:11,1017.26,-2.3,0.3,35,3.23,40.742687,29.942057,13.5,KURTARMA,250,290,105,0,EVET
62319,191,26:08:21,11:25:12,1017.31,-2.8,-0.4,35,3.22,40.742867,29.941988,-14.0,KURTARMA,157,333,88,0,EVET
62319,192,26:08:21,11:25:13,1017.27,-2.4,0.4,35,3.21,40.742840,29.941952,-11.2,KURTARMA,26,334,86,0,EVET
62319,193,26:08:21,11:25:14,1017.29,-2.6,-0.2,35,3.23,40.742809,29.941906,-10.0,KURTARMA,25,333,86,0,EVET
62319,194,26:08:21,11:25:15,1017.28,-2.5,0.0,35,3.23,40.742832,29.941845,-11.1,KURTARMA,19,329,85,0,EVET
62319,195,26:08:21,11:25:16,1017.33,-2.9,-0.4,35,3.22,40.742836,29.941837,-13.2,KURTARMA,28,343,85,0,EVET
62319,196,26:08:21,11:25:17,1017.32,-2.9,0.1,35,3.23,40.742832,29.941837,-14.4,KURTARMA,23,338,81,0,EVET
62319,197,26:08:21,11:25:18,1017.27,-2.4,0.4,35,3.22,40.742836,29.941830,-13.3,KURTARMA,115,294,171,0,EVET
62319,198,26:08:21,11:25:19,1017.25,-2.2,0.2,35,3.23,40.742836,29.941830,-13.3,KURTARMA,224,272,316,0,EVET
62319,199,26:08:21,11:25:20,1017.28,-2.5,-0.3,35,3.22,40.742836,29.941830,-13.3,KURTARMA,284,271,148,0,EVET
62319,200,26:08:21,11:25:21,1017.26,-2.3,0.2,35,3.22,40.742836,29.941862,-12.2,KURTARMA,324,278,203,0,EVET
62319,201,26:08:21,11:25:22,1017.27,-2.4,-0.1,35,3.23,40.742840,29.941877,-9.9,KURTARMA,300,305,136,0,EVET
62319,202,26:08:21,11:25:23,1017.27,-2.4,-0.0,35,3.23,40.742809,29.941870,-1.9,KURTARMA,312,318,54,0,EVET
62319,203,26:08:21,11:25:24,1017.27,-2.4,-0.0,35,3.22,40.742817,29.941895,-2.1,KURTARMA,39,342,85,0,EVET
62319,204,26:08:21,11:25:25,1017.28,-2.5,-0.0,35,3.23,40.742840,29.941891,-2.1,KURTARMA,36,329,87,0,EVET
62319,205,26:08:21,11:25:26,1017.26,-2.3,0.1,35,3.23,40.742844,29.941891,-2.1,KURTARMA,82,332,87,0,EVET
62319,206,26:08:21,11:25:27,1017.29,-2.6,-0.3,35,3.23,40.742847,29.941887,-2.4,KURTARMA,318,293,58,0,EVET
62319,207,26:08:21,11:25:28,1017.29,-2.6,0.0,35,3.23,40.742847,29.941887,-2.4,KURTARMA,245,288,53,0,EVET
62319,208,26:08:21,11:25:29,1017.28,-2.4,0.2,35,3.23,40.742847,29.941877,-2.5,KURTARMA,70,292,59,0,EVET
62319,209,26:08:21,11:25:30,1017.26,-2.3,0.2,35,3.23,40.742844,29.941883,-2.6,KURTARMA,106,299,66,0,EVET
62319,210,26:08:21,11:25:31,1017.27,-2.4,-0.1,35,3.22,40.742847,29.941883,-2.7,KURTARMA,93,294,60,0,EVET
62319,211,26:08:21,11:25:32,1017.22,-1.9,0.5,35,3.22,40.742844,29.941874,-2.9,KURTARMA,324,287,315,0,EVET
62319,212,26:08:21,11:25:33,1017.30,-2.7,-0.8,35,3.21,40.742847,29.941874,-3.0,KURTARMA,214,323,275,0,EVET
62319,213,26:08:21,11:25:34,1017.32,-2.8,-0.1,35,3.21,40.742844,29.941866,-3.2,KURTARMA,104,311,273,0,EVET
62319,214,26:08:21,11:25:35,1017.29,-2.6,0.2,35,3.22,40.742844,29.941866,-3.2,KURTARMA,35,258,277,0,EVET
62319,215,26:08:21,11:25:36,1017.27,-2.3,0.2,35,3.23,40.742844,29.941866,-3.2,KURTARMA,41,281,283,0,EVET
62319,216,26:08:21,11:25:37,1017.31,-2.7,-0.4,35,3.22,40.742844,29.941866,-3.2,KURTARMA,42,334,286,0,EVET
62319,217,26:08:21,11:25:38,1017.28,-2.5,0.3,35,3.22,40.742844,29.941866,-3.2,KURTARMA,46,312,304,0,EVET
62319,218,26:08:21,11:25:39,1017.35,-3.1,-0.6,35,3.22,40.742844,29.941866,-3.2,KURTARMA,299,280,159,0,EVET
62319,219,26:08:21,11:25:40,1017.29,-2.6,0.5,35,3.22,40.742844,29.941866,-3.2,KURTARMA,257,278,324,0,EVET
62319,220,26:08:21,11:25:41,1017.33,-2.9,-0.3,35,3.22,40.742844,29.941866,-3.2,KURTARMA,110,290,307,0,EVET
62319,221,26:08:21,11:25:42,1017.36,-3.2,-0.3,35,3.22,40.742844,29.941866,-3.2,KURTARMA,27,280,282,0,EVET
62319,222,26:08:21,11:25:43,1017.26,-2.3,0.9,35,3.22,40.742844,29.941866,-3.2,KURTARMA,66,271,286,0,EVET
62319,223,26:08:21,11:25:44,1017.28,-2.5,-0.2,35,3.21,40.742844,29.941866,-3.2,KURTARMA,64,287,287,0,EVET
62319,224,26:08:21,11:25:45,1017.26,-2.3,0.2,35,3.22,40.742844,29.941866,-3.2,KURTARMA,83,317,332,0,EVET
62319,225,26:08:21,11:25:46,1017.26,-2.3,-0.0,35,3.20,40.742844,29.941866,-3.2,KURTARMA,80,275,158,0,EVET
62319,226,26:08:21,11:25:47,1017.28,-2.5,-0.1,35,3.22,40.742844,29.941866,-3.2,KURTARMA,61,308,42,0,EVET
62319,227,26:08:21,11:25:48,1017.27,-2.4,0.1,35,3.21,40.742702,29.942049,-3.0,KURTARMA,57,313,53,0,EVET
62319,228,26:08:21,11:25:49,1017.27,-2.4,0.0,35,3.21,40.742702,29.942049,-3.0,KURTARMA,65,330,55,0,EVET
62319,229,26:08:21,11:25:50,1017.28,-2.4,-0.0,35,3.22,40.742702,29.942049,-3.0,KURTARMA,66,346,61,0,EVET
62319,230,26:08:21,11:25:51,1017.25,-2.2,0.2,35,3.23,40.742702,29.942049,-3.0,KURTARMA,52,336,67,0,EVET
62319,231,26:08:21,11:25:52,1017.21,-1.9,0.3,35,3.23,40.742702,29.942049,-3.0,KURTARMA,26,332,83,0,EVET
62319,232,26:08:21,11:25:53,1017.23,-2.0,-0.2,35,3.22,40.742683,29.941877,1.9,KURTARMA,21,349,87,0,EVET
62319,233,26:08:21,11:25:54,1017.26,-2.3,-0.2,35,3.22,40.742680,29.941927,-4.8,KURTARMA,18,318,88,0,EVET
62319,234,26:08:21,11:25:55,1017.23,-2.0,0.3,35,3.22,40.742680,29.941927,-4.8,KURTARMA,19,266,88,0,EVET
62319,235,26:08:21,11:25:56,1017.25,-2.2,-0.2,35,3.21,40.742680,29.941927,-4.8,KURTARMA,23,206,89,0,EVET
62319,236,26:08:21,11:25:57,1017.27,-2.4,-0.2,35,3.21,40.742680,29.941927,-4.8,KURTARMA,15,325,90,0,EVET
62319,237,26:08:21,11:25:58,1017.22,-1.9,0.5,35,3.23,40.742680,29.941927,-4.8,KURTARMA,18,346,87,0,EVET
62319,238,26:08:21,11:25:59,1017.27,-2.4,-0.5,35,3.22,40.742680,29.941927,-4.8,KURTARMA,28,316,73,0,EVET
62319,239,26:08:21,11:26:00,1017.26,-2.3,0.1,35,3.21,40.742680,29.941927,-4.8,KURTARMA,17,326,81,0,EVET
62319,240,26:08:21,11:26:01,1017.31,-2.7,-0.4,35,3.22,40.742680,29.941927,-4.8,KURTARMA,18,348,88,0,EVET
62319,241,26:08:21,11:26:02,1017.24,-2.2,0.6,35,3.22,40.742680,29.941927,-4.8,KURTARMA,16,339,86,0,EVET
62319,242,26:08:21,11:26:03,1017.25,-2.2,-0.0,35,3.21,40.742680,29.941927,-4.8,KURTARMA,16,341,87,0,EVET
62319,243,26:08:21,11:26:04,1017.25,-2.2,-0.0,35,3.22,40.742680,29.941927,-4.8,KURTARMA,14,341,86,0,EVET
62319,244,26:08:21,11:26:05,1017.27,-2.4,-0.2,35,3.21,40.742680,29.941927,-4.8,KURTARMA,30,332,88,0,EVET
62319,245,26:08:21,11:26:06,1017.29,-2.6,-0.2,35,3.22,40.742680,29.941927,-4.8,KURTARMA,35,338,85,0,EVET
62319,246,26:08:21,11:26:07,1017.27,-2.4,0.2,35,3.22,40.742680,29.941927,-4.8,KURTARMA,60,340,86,0,EVET
62319,247,26:08:21,11:26:08,1017.28,-2.5,-0.1,35,3.21,40.742680,29.941927,-4.8,KURTARMA,67,337,88,0,EVET
62319,248,26:08:21,11:26:09,1017.24,-2.1,0.3,35,3.23,40.742680,29.941927,-4.8,KURTARMA,11,342,88,0,EVET
62319,249,26:08:21,11:26:10,1017.25,-2.2,-0.1,35,3.23,40.742680,29.941927,-4.8,KURTARMA,9,328,84,0,EVET
62319,250,26:08:21,11:26:11,1017.31,-2.7,-0.5,35,3.23,40.742680,29.941927,-4.8,KURTARMA,18,335,84,0,EVET
62319,251,26:08:21,11:26:12,1017.28,-2.5,0.2,35,3.22,40.742680,29.941927,-4.8,KURTARMA,18,341,88,0,EVET
62319,252,26:08:21,11:26:13,1017.30,-2.7,-0.1,35,3.22,40.742680,29.941927,-4.8,KURTARMA,27,339,88,0,EVET
62319,253,26:08:21,11:26:14,1017.27,-2.4,0.3,35,3.22,40.742680,29.941927,-4.8,KURTARMA,8,332,86,0,EVET
62319,254,26:08:21,11:26:15,1017.29,-2.6,-0.2,35,3.22,40.742680,29.941927,-4.8,KURTARMA,13,335,86,0,EVET
62319,255,26:08:21,11:26:16,1017.24,-2.2,0.4,35,3.22,40.742680,29.941927,-4.8,KURTARMA,14,337,86,0,EVET
62319,256,26:08:21,11:26:17,1017.25,-2.2,-0.0,35,3.22,40.742680,29.941927,-4.8,KURTARMA,12,338,87,0,EVET
62319,257,26:08:21,11:26:18,1017.27,-2.4,-0.1,35,3.21,40.742680,29.941927,-4.8,KURTARMA,17,340,88,0,EVET
62319,258,26:08:21,11:26:19,1017.24,-2.1,0.3,35,3.22,40.742680,29.941927,-4.8,KURTARMA,12,339,87,0,EVET
62319,259,26:08:21,11:26:20,1017.31,-2.7,-0.7,35,3.22,40.742680,29.941927,-4.8,KURTARMA,12,341,87,0,EVET
62319,260,26:08:21,11:26:21,1017.26,-2.3,0.4,35,3.21,40.742680,29.941927,-4.8,KURTARMA,14,345,88,0,EVET
62319,261,26:08:21,11:26:22,1017.31,-2.8,-0.4,35,3.22,40.742680,29.941927,-4.8,KURTARMA,15,346,88,0,EVET
62319,262,26:08:21,11:26:23,1017.29,-2.6,0.2,35,3.22,40.742680,29.941927,-4.8,KURTARMA,11,344,89,0,EVET
62319,263,26:08:21,11:26:24,1017.30,-2.6,-0.0,35,3.23,40.742680,29.941927,-4.8,KURTARMA,12,342,87,0,EVET
62319,264,26:08:21,11:26:25,1017.27,-2.4,0.2,35,3.22,40.742680,29.941927,-4.8,KURTARMA,12,340,88,0,EVET
62319,265,26:08:21,11:26:26,1017.29,-2.6,-0.2,35,3.21,40.742680,29.941927,-4.8,KURTARMA,13,339,87,0,EVET
62319,266,26:08:21,11:26:27,1017.32,-2.9,-0.3,35,3.22,40.742680,29.941927,-4.8,KURTARMA,14,338,87,0,EVET
62319,267,26:08:21,11:26:28,1017.26,-2.3,0.6,35,3.23,40.742680,29.941927,-4.8,KURTARMA,24,336,87,0,EVET
62319,268,26:08:21,11:26:29,1017.22,-2.0,0.3,35,3.22,40.742680,29.941927,-4.8,KURTARMA,15,338,87,0,EVET
62319,269,26:08:21,11:26:30,1017.19,-1.7,0.3,35,3.22,40.742680,29.941927,-4.8,KURTARMA,14,339,87,0,EVET
62319,270,26:08:21,11:26:31,1017.25,-2.2,-0.5,35,3.23,40.742680,29.941927,-4.8,KURTARMA,13,339,87,0,EVET
62319,271,26:08:21,11:26:32,1017.28,-2.5,-0.3,35,3.23,40.742680,29.941927,-4.8,KURTARMA,12,340,87,0,EVET
62319,272,26:08:21,11:26:33,1017.21,-1.8,0.7,35,3.22,40.742680,29.941927,-4.8,KURTARMA,12,340,88,0,EVET
62319,273,26:08:21,11:26:34,1017.28,-2.5,-0.6,35,3.23,40.742680,29.941927,-4.8,KURTARMA,13,340,87,0,EVET
62319,274,26:08:21,11:26:35,1017.29,-2.6,-0.1,35,3.23,40.742680,29.941927,-4.8,KURTARMA,12,343,88,0,EVET
62319,275,26:08:21,11:26:36,1017.27,-2.4,0.1,35,3.22,40.742680,29.941927,-4.8,KURTARMA,12,342,88,0,EVET
62319,276,26:08:21,11:26:37,1017.27,-2.4,0.0,35,3.22,40.742680,29.941927,-4.8,KURTARMA,13,342,88,0,EVET
62319,277,26:08:21,11:26:38,1017.29,-2.6,-0.1,35,3.21,40.742680,29.941927,-4.8,KURTARMA,14,343,88,0,EVET
62319,278,26:08:21,11:26:39,1017.27,-2.4,0.2,35,3.20,40.742680,29.941927,-4.8,KURTARMA,11,346,88,0,EVET
62319,279,26:08:21,11:26:40,1017.35,-3.1,-0.7,35,3.22,40.742680,29.941927,-4.8,KURTARMA,10,342,89,0,EVET
62319,280,26:08:21,11:26:41,1017.27,-2.4,0.7,35,3.22,40.742680,29.941927,-4.8,KURTARMA,12,339,87,0,EVET
62319,281,26:08:21,11:26:42,1017.25,-2.3,0.2,35,3.21,40.742680,29.941927,-4.8,KURTARMA,12,337,87,0,EVET
62319,282,26:08:21,11:26:43,1017.34,-3.0,-0.7,35,3.23,40.742680,29.941927,-4.8,KURTARMA,14,337,87,0,EVET
62319,283,26:08:21,11:26:44,1017.29,-2.6,0.4,35,3.22,40.742680,29.941927,-4.8,KURTARMA,14,344,86,0,EVET
62319,284,26:08:21,11:26:45,1017.23,-2.1,0.5,35,3.23,40.742680,29.941927,-4.8,KURTARMA,15,343,88,0,EVET
62319,285,26:08:21,11:26:46,1017.26,-2.3,-0.3,35,3.21,40.742680,29.941927,-4.8,KURTARMA,14,337,87,0,EVET
62319,286,26:08:21,11:26:47,1017.26,-2.3,0.0,35,3.20,40.742680,29.941927,-4.8,KURTARMA,13,339,87,0,EVET
62319,287,26:08:21,11:26:48,1017.27,-2.4,-0.1,35,3.22,40.742680,29.941927,-4.8,KURTARMA,22,340,83,0,EVET
62319,288,26:08:21,11:26:49,1017.28,-2.5,-0.1,35,3.21,40.742680,29.941927,-4.8,KURTARMA,16,323,89,0,EVET
62319,289,26:08:21,11:26:50,1017.33,-2.9,-0.4,35,3.22,40.742680,29.941927,-4.8,KURTARMA,23,233,89,0,EVET
62319,290,26:08:21,11:26:51,1017.26,-2.3,0.6,35,3.23,40.742680,29.941927,-4.8,KURTARMA,26,63,87,0,EVET
62319,291,26:08:21,11:26:52,1017.33,-2.9,-0.6,35,3.23,40.742680,29.941927,-4.8,KURTARMA,33,121,88,0,EVET
62319,292,26:08:21,11:26:53,1017.27,-2.4,0.5,35,3.22,40.742680,29.941927,-4.8,KURTARMA,20,353,88,0,EVET
62319,293,26:08:21,11:26:54,1017.37,-3.3,-0.9,35,3.23,40.742680,29.941927,-4.8,KURTARMA,25,340,86,0,EVET
62319,294,26:08:21,11:26:55,1017.31,-2.7,0.6,35,3.23,40.742680,29.941927,-4.8,KURTARMA,23,340,87,0,EVET
62319,295,26:08:21,11:26:56,1017.31,-2.7,-0.0,35,3.22,40.742680,29.941927,-4.8,KURTARMA,24,351,87,0,EVET
62319,296,26:08:21,11:26:57,1017.31,-2.8,-0.0,35,3.22,40.742680,29.941927,-4.8,KURTARMA,25,164,88,0,EVET
62319,297,26:08:21,11:26:58,1017.34,-3.0,-0.3,35,3.23,40.742680,29.941927,-4.8,KURTARMA,26,155,88,0,EVET
62319,298,26:08:21,11:26:59,1017.29,-2.6,0.5,35,3.22,40.742680,29.941927,-4.8,KURTARMA,27,234,86,0,EVET
62319,299,26:08:21,11:27:00,1017.31,-2.7,-0.1,35,3.22,40.742680,29.941927,-4.8,KURTARMA,23,354,87,0,EVET
62319,300,26:08:21,11:27:01,1017.32,-2.8,-0.1,35,3.21,40.742680,29.941927,-4.8,KURTARMA,21,338,88,0,EVET
62319,301,26:08:21,11:27:02,1017.27,-2.4,0.4,35,3.22,40.742680,29.941927,-4.8,KURTARMA,23,346,87,0,EVET
62319,302,26:08:21,11:27:03,1017.32,-2.8,-0.5,35,3.22,40.742680,29.941927,-4.8,KURTARMA,23,352,87,0,EVET
62319,303,26:08:21,11:27:04,1017.35,-3.1,-0.3,35,3.22,40.742680,29.941927,-4.8,KURTARMA,24,346,88,0,EVET
62319,304,26:08:21,11:27:05,1017.34,-3.0,0.1,35,3.23,40.742680,29.941927,-4.8,KURTARMA,22,351,87,0,EVET
62319,305,26:08:21,11:27:06,1017.38,-3.4,-0.4,35,3.22,40.742680,29.941927,-4.8,KURTARMA,21,347,87,0,EVET
62319,306,26:08:21,11:27:07,1017.30,-2.7,0.7,35,3.22,40.742680,29.941927,-4.8,KURTARMA,21,344,86,0,EVET
62319,307,26:08:21,11:27:08,1017.38,-3.4,-0.7,35,3.23,40.742680,29.941927,-4.8,KURTARMA,23,342,86,0,EVET
62319,308,26:08:21,11:27:09,1017.31,-2.8,0.6,35,3.22,40.742680,29.941927,-4.8,KURTARMA,24,343,85,0,EVET
62319,309,26:08:21,11:27:10,1017.27,-2.4,0.4,35,3.22,40.742680,29.941927,-4.8,KURTARMA,23,348,87,0,EVET
62319,310,26:08:21,11:27:11,1017.33,-3.0,-0.5,35,3.22,40.742680,29.941927,-4.8,KURTARMA,19,348,88,0,EVET
62319,311,26:08:21,11:27:12,1017.34,-3.0,-0.1,35,3.22,40.742680,29.941927,-4.8,KURTARMA,19,349,88,0,EVET
62319,312,26:08:21,11:27:13,1017.34,-3.1,-0.0,35,3.23,40.742680,29.941927,-4.8,KURTARMA,18,352,88,0,EVET
62319,313,26:08:21,11:27:14,1017.37,-3.3,-0.3,35,3.20,40.742680,29.941927,-4.8,KURTARMA,20,344,89,0,EVET
62319,314,26:08:21,11:27:15,1017.33,-3.0,0.4,35,3.22,40.742680,29.941927,-4.8,KURTARMA,13,351,88,0,EVET
62319,315,26:08:21,11:27:16,1017.28,-2.5,0.5,35,3.24,40.742680,29.941927,-4.8,KURTARMA,17,302,89,0,EVET
62319,316,26:08:21,11:27:17,1017.27,-2.4,0.0,35,3.23,40.742680,29.941927,-4.8,KURTARMA,11,351,89,0,EVET
62319,317,26:08:21,11:27:18,1017.28,-2.5,-0.0,35,3.23,40.742680,29.941927,-4.8,KURTARMA,17,347,88,0,EVET
62319,318,26:08:21,11:27:19,1017.37,-3.3,-0.8,35,3.22,40.742886,29.942034,-18.3,KURTARMA,35,197,95,0,EVET
62319,319,26:08:21,11:27:20,1017.30,-2.7,0.6,35,3.20,40.742878,29.942024,-22.5,KURTARMA,57,247,89,0,EVET
62319,320,26:08:21,11:27:21,1017.33,-3.0,-0.3,35,3.22,40.742874,29.942020,-24.6,KURTARMA,81,231,88,0,EVET
62319,321,26:08:21,11:27:22,1017.31,-2.8,0.2,35,3.21,40.742874,29.942020,-24.6,KURTARMA,98,248,99,0,EVET
62319,322,26:08:21,11:27:23,1017.36,-3.2,-0.5,35,3.22,40.742874,29.942020,-24.6,KURTARMA,72,89,99,0,EVET
62319,323,26:08:21,11:27:24,1017.32,-2.8,0.4,35,3.22,40.742874,29.942020,-24.6,KURTARMA,83,198,122,0,EVET
62319,324,26:08:21,11:27:25,1017.34,-3.0,-0.2,35,3.22,40.742874,29.942020,-24.6,KURTARMA,114,245,123,0,EVET
62319,325,26:08:21,11:27:26,1017.41,-3.6,-0.6,35,3.23,40.742874,29.942020,-24.6,KURTARMA,130,245,140,0,EVET
62319,326,26:08:21,11:27:27,1017.35,-3.1,0.5,35,3.22,40.742874,29.942020,-24.6,KURTARMA,64,267,93,0,EVET
62319,327,26:08:21,11:27:28,1017.29,-2.5,0.6,35,3.21,40.742825,29.941973,-25.7,KURTARMA,117,310,102,0,EVET
62319,328,26:08:21,11:27:29,1017.36,-3.2,-0.7,35,3.23,40.742825,29.941980,-23.4,KURTARMA,55,254,99,0,EVET
62319,329,26:08:21,11:27:30,1017.33,-2.9,0.3,35,3.21,40.742836,29.941984,-22.9,KURTARMA,70,245,92,0,EVET
62319,330,26:08:21,11:27:31,1017.30,-2.6,0.3,35,3.22,40.742809,29.941967,-18.5,KURTARMA,83,280,88,0,EVET
62319,331,26:08:21,11:27:32,1017.30,-2.7,-0.1,35,3.22,40.742798,29.941967,-16.8,KURTARMA,115,225,113,0,EVET
62319,332,26:08:21,11:27:33,1017.35,-3.1,-0.4,35,3.23,40.742790,29.941959,-14.3,KURTARMA,103,223,111,0,EVET
62319,333,26:08:21,11:27:34,1017.34,-3.0,0.0,35,3.22,40.742783,29.941963,-12.4,KURTARMA,83,226,117,0,EVET
62319,334,26:08:21,11:27:35,1017.30,-2.7,0.4,35,3.21,40.742790,29.941980,-14.1,KURTARMA,102,263,111,0,EVET
62319,335,26:08:21,11:27:36,1017.38,-3.4,-0.7,35,3.22,40.742790,29.942028,-15.5,KURTARMA,119,280,120,0,EVET
62319,336,26:08:21,11:27:37,1017.34,-3.0,0.4,35,3.23,40.742790,29.942060,-17.5,KURTARMA,107,254,124,0,EVET
62319,337,26:08:21,11:27:38,1017.34,-3.0,-0.0,35,3.23,40.742771,29.941992,-14.2,KURTARMA,98,285,106,0,EVET
62319,338,26:08:21,11:27:39,1017.39,-3.4,-0.4,35,3.22,40.742771,29.941963,-15.1,KURTARMA,104,168,134,0,EVET
62319,339,26:08:21,11:27:40,1017.32,-2.9,0.6,35,3.23,40.742771,29.941956,-15.7,KURTARMA,123,259,125,0,EVET
62319,340,26:08:21,11:27:41,1017.29,-2.6,0.3,35,3.22,40.742798,29.942005,-18.2,KURTARMA,72,199,100,0,EVET
62319,341,26:08:21,11:27:42,1017.31,-2.8,-0.2,35,3.21,40.742805,29.942005,-20.0,KURTARMA,117,232,125,0,EVET
62319,342,26:08:21,11:27:43,1017.32,-2.8,-0.0,35,3.21,40.742809,29.941959,-19.6,KURTARMA,104,307,112,0,EVET
62319,343,26:08:21,11:27:44,1017.33,-2.9,-0.1,35,3.23,40.742809,29.941963,-20.1,KURTARMA,24,311,87,0,EVET
62319,344,26:08:21,11:27:45,1017.31,-2.8,0.2,35,3.22,40.742821,29.941938,-21.3,KURTARMA,25,306,87,0,EVET
62319,345,26:08:21,11:27:46,1017.32,-2.8,-0.0,36,3.22,40.742821,29.941944,-22.2,KURTARMA,22,342,87,0,EVET
62319,346,26:08:21,11:27:47,1017.29,-2.6,0.2,36,3.22,40.742825,29.941927,-18.2,KURTARMA,27,340,86,0,EVET
62319,347,26:08:21,11:27:48,1017.36,-3.2,-0.7,36,3.22,40.742779,29.941887,-10.3,KURTARMA,24,337,87,0,EVET
62319,348,26:08:21,11:27:49,1017.36,-3.2,0.1,36,3.22,40.742779,29.941887,-10.3,KURTARMA,21,336,91,0,EVET
62319,349,26:08:21,11:27:50,1017.32,-2.8,0.3,36,3.22,40.742779,29.941887,-10.3,KURTARMA,12,341,87,0,EVET
62319,350,26:08:21,11:27:51,1017.31,-2.8,0.0,36,3.22,40.742779,29.941887,-10.3,KURTARMA,16,348,87,0,EVET
62319,351,26:08:21,11:27:52,1017.30,-2.7,0.1,36,3.22,40.742779,29.941887,-10.3,KURTARMA,17,353,89,0,EVET
62319,352,26:08:21,11:27:53,1017.30,-2.7,0.0,36,3.22,40.742779,29.941887,-10.3,KURTARMA,13,351,89,0,EVET
62319,353,26:08:21,11:27:54,1017.29,-2.6,0.1,36,3.21,40.742779,29.941887,-10.3,KURTARMA,15,351,88,0,EVET
62319,354,26:08:21,11:27:55,1017.28,-2.5,0.1,36,3.22,40.742779,29.941887,-10.3,KURTARMA,21,301,92,0,EVET
62319,355,26:08:21,11:27:56,1017.24,-2.1,0.3,36,3.22,40.742779,29.941887,-10.3,KURTARMA,28,320,82,0,EVET
62319,356,26:08:21,11:27:57,1017.28,-2.5,-0.4,36,3.22,40.742779,29.941887,-10.3,KURTARMA,33,313,83,0,EVET
62319,357,26:08:21,11:27:58,1017.27,-2.4,0.1,36,3.21,40.742779,29.941887,-10.3,KURTARMA,34,54,84,0,EVET
62319,358,26:08:21,11:27:59,1017.25,-2.2,0.2,36,3.23,40.742779,29.941887,-10.3,KURTARMA,38,177,83,0,EVET
62319,359,26:08:21,11:28:00,1017.27,-2.4,-0.2,36,3.23,40.742779,29.941887,-10.3,KURTARMA,23,9,86,0,EVET
62319,360,26:08:21,11:28:01,1017.29,-2.5,-0.1,36,3.22,40.742779,29.941887,-10.3,KURTARMA,21,16,87,0,EVET
62319,361,26:08:21,11:28:02,1017.31,-2.7,-0.2,36,3.22,40.742779,29.941887,-10.3,KURTARMA,25,15,88,0,EVET
62319,362,26:08:21,11:28:03,1017.26,-2.3,0.4,36,3.22,40.742779,29.941887,-10.3,KURTARMA,14,14,88,0,EVET
62319,363,26:08:21,11:28:04,1017.34,-3.0,-0.7,36,3.23,40.742779,29.941887,-10.3,KURTARMA,30,16,88,0,EVET
62319,364,26:08:21,11:28:05,1017.26,-2.3,0.7,36,3.22,40.742779,29.941887,-10.3,KURTARMA,16,14,87,0,EVET
62319,365,26:08:21,11:28:06,1017.24,-2.1,0.2,36,3.22,40.742779,29.941887,-10.3,KURTARMA,20,11,87,0,EVET
62319,366,26:08:21,11:28:07,1017.26,-2.3,-0.2,36,3.21,40.742779,29.941887,-10.3,KURTARMA,40,15,89,0,EVET
62319,367,26:08:21,11:28:08,1017.25,-2.2,0.1,36,3.22,40.742779,29.941887,-10.3,KURTARMA,26,15,88,0,EVET
62319,368,26:08:21,11:28:09,1017.27,-2.4,-0.2,36,3.22,40.742779,29.941887,-10.3,KURTARMA,17,13,88,0,EVET
62319,369,26:08:21,11:28:10,1017.31,-2.7,-0.3,36,3.22,40.742779,29.941887,-10.3,KURTARMA,25,15,88,0,EVET
62319,370,26:08:21,11:28:11,1017.26,-2.3,0.4,36,3.23,40.742779,29.941887,-10.3,KURTARMA,11,10,89,0,EVET
62319,371,26:08:21,11:28:12,1017.30,-2.7,-0.3,36,3.23,40.742779,29.941887,-10.3,KURTARMA,24,7,87,0,EVET
62319,372,26:08:21,11:28:13,1017.25,-2.2,0.5,36,3.22,40.742779,29.941887,-10.3,KURTARMA,28,7,86,0,EVET
62319,373,26:08:21,11:28:14,1017.26,-2.3,-0.1,36,3.23,40.742779,29.941887,-10.3,KURTARMA,15,11,88,0,EVET
62319,374,26:08:21,11:28:15,1017.27,-2.4,-0.0,36,3.23,40.742779,29.941887,-10.3,KURTARMA,14,14,88,0,EVET
62319,375,26:08:21,11:28:16,1017.29,-2.6,-0.2,36,3.23,40.742779,29.941887,-10.3,KURTARMA,28,6,86,0,EVET
62319,376,26:08:21,11:28:17,1017.29,-2.6,-0.0,36,3.22,40.742393,29.943213,-4.3,KURTARMA,31,6,85,0,EVET
62319,377,26:08:21,11:28:18,1017.28,-2.4,0.1,36,3.21,40.742393,29.943213,-4.3,KURTARMA,27,21,86,0,EVET
62319,378,26:08:21,11:28:19,1017.28,-2.5,-0.0,36,3.23,40.742393,29.943213,-4.3,KURTARMA,28,65,86,0,EVET
62319,379,26:08:21,11:28:20,1017.28,-2.5,0.0,36,3.22,40.742393,29.943213,-4.3,KURTARMA,46,342,77,0,EVET
62319,380,26:08:21,11:28:21,1017.29,-2.5,-0.1,36,3.22,40.742393,29.943213,-4.3,KURTARMA,38,338,83,0,EVET
