TeamNo,PackageNo,Time,Hour,Pressure,Height,DescentRate,Temperature,Voltage,Latitude,Longitude,Altitude,Satellitestatus,Pitch,Roll,Yaw,RollingCount,TransferringStatus
62319,1,18:08:21,00:00:00,1052.73,231.0,231.0,35,3.27,0.000000,0.000000,0.0,BEKLEMEDE,0,0,0,DONUS,VIDEO
<62319,2,18:08:21,00:00:00,1053.49,224.6,-6.4,35,3.27,0.000000,0.000000,0.0,YUKSELME,281,351,40,DONUS,VIDEO
<62319,3,18:08:21,00:00:00,1053.64,223.3,-1.3,35,3.27,0.000000,0.000000,0.0,ASKIDA,280,358,40,DONUS,VIDEO
<62319,4,18:08:21,00:00:00,1053.78,222.1,-1.2,35,3.27,0.000000,0.000000,0.0,ASKIDA,280,358,40,DONUS,VIDEO
<62319,5,18:08:21,00:00:00,1053.85,221.5,-0.6,35,3.27,0.000000,0.000000,0.0,ASKIDA,280,358,39,DONUS,VIDEO
<62319,6,18:08:21,00:00:00,1053.93,220.9,-0.6,35,3.27,0.000000,0.000000,0.0,ASKIDA,280,357,40,DONUS,VIDEO
<62319,7,18:08:21,00:00:00,1054.05,219.9,-1.0,35,3.27,0.000000,0.000000,0.0,ASKIDA,280,357,40,DONUS,VIDEO
<62319,8,18:08:21,00:00:00,1054.10,219.4,-0.4,35,3.27,0.000000,0.000000,0.0,ASKIDA,280,342,40,DONUS,VIDEO
<62319,9,18:08:21,00:00:00,1054.14,219.1,-0.3,35,3.27,0.000000,0.000000,0.0,ASKIDA,280,337,39,DONUS,VIDEO
<62319,10,18:08:21,00:00:00,1054.22,218.4,-0.7,35,3.27,0.000000,0.000000,0.0,ASKIDA,280,242,40,DONUS,VIDEO
<62319,11,18:08:21,00:00:00,1054.35,217.3,-1.1,35,3.27,0.000000,0.000000,0.0,ASKIDA,280,257,39,DONUS,VIDEO
<62319,12,18:08:21,00:00:00,1054.34,217.4,0.0,35,3.27,0.000000,0.000000,0.0,ASKIDA,280,118,41,DONUS,VIDEO
<62319,13,18:08:21,00:00:00,1054.35,217.4,-0.0,35,3.27,0.000000,0.000000,0.0,INIS,280,133,41,DONUS,VIDEO
<62319,14,18:08:21,00:00:00,1054.50,216.0,-1.3,35,3.27,0.000000,0.000000,0.0,INIS,280,176,40,DONUS,VIDEO
<62319,15,18:08:21,00:00:00,1054.47,216.3,0.3,35,3.27,0.000000,0.000000,0.0,INIS,279,213,39,DONUS,VIDEO
<62319,16,18:08:21,00:00:00,1054.56,215.6,-0.8,35,3.27,0.000000,0.000000,0.0,INIS,278,220,37,DONUS,VIDEO
<62319,17,18:08:21,00:00:00,1054.57,215.5,-0.1,35,3.27,0.000000,0.000000,0.0,INIS,281,184,41,DONUS,VIDEO
<62319,18,18:08:21,00:00:00,1054.63,215.0,-0.5,35,3.27,0.000000,0.000000,0.0,INIS,282,198,44,DONUS,VIDEO
<62319,19,18:08:21,00:00:00,1054.61,215.1,0.1,35,3.27,0.000000,0.000000,0.0,INIS,281,140,42,DONUS,VIDEO
<62319,20,18:08:21,00:00:00,1054.73,214.1,-1.0,35,3.27,0.000000,0.000000,0.0,INIS,280,206,40,DONUS,VIDEO
<62319,21,18:08:21,00:00:00,1054.69,214.4,0.3,35,3.27,0.000000,0.000000,0.0,INIS,280,176,41,DONUS,VIDEO
<62319,22,18:08:21,00:00:00,1054.73,214.2,-0.3,35,3.27,0.000000,0.000000,0.0,INIS,280,133,40,DONUS,VIDEO
<62319,23,18:08:21,00:00:00,1054.80,213.5,-0.6,35,3.27,0.000000,0.000000,0.0,INIS,280,133,40,DONUS,VIDEO
<62319,24,18:08:21,00:00:00,1054.86,213.0,-0.5,35,3.27,0.000000,0.000000,0.0,INIS,280,147,41,DONUS,VIDEO
<62319,25,18:08:21,00:00:00,1054.92,212.5,-0.5,35,3.27,0.000000,0.000000,0.0,INIS,280,351,40,DONUS,VIDEO
<62319,26,18:08:21,00:00:00,1054.96,212.1,-0.4,35,3.27,0.000000,0.000000,0.0,INIS,279,344,39,DONUS,VIDEO
<62319,27,18:08:21,00:00:00,1054.96,212.2,0.1,35,3.27,0.000000,0.000000,0.0,INIS,266,146,74,DONUS,VIDEO
<62319,28,18:08:21,00:00:00,1054.91,212.6,0.4,35,3.27,0.000000,0.000000,0.0,INIS,279,11,35,DONUS,VIDEO
<62319,29,18:08:21,00:00:00,1054.93,212.4,-0.3,35,3.27,0.000000,0.000000,0.0,INIS,283,163,46,DONUS,VIDEO
<62319,30,18:08:21,00:00:00,1054.81,213.4,1.0,35,3.27,0.000000,0.000000,0.0,INIS,284,47,48,DONUS,VIDEO
<62319,31,18:08:21,00:00:00,1054.80,213.5,0.1,35,3.27,0.000000,0.000000,0.0,INIS,292,234,52,DONUS,VIDEO
<62319,32,18:08:21,00:00:00,1054.78,213.7,0.1,35,3.27,0.000000,0.000000,0.0,INIS,289,336,55,DONUS,VIDEO
<62319,33,18:08:21,00:00:00,1054.75,213.9,0.3,35,3.27,0.000000,0.000000,0.0,INIS,285,346,48,DONUS,VIDEO
<62319,34,18:08:21,00:00:00,1054.73,214.1,0.2,35,3.27,0.000000,0.000000,0.0,INIS,284,344,44,DONUS,VIDEO
<62319,35,18:08:21,00:00:00,1054.65,214.8,0.7,35,3.26,0.000000,0.000000,0.0,INIS,283,346,43,DONUS,VIDEO
<62319,36,18:08:21,00:00:00,1054.62,215.1,0.2,35,3.27,0.000000,0.000000,0.0,INIS,283,346,43,DONUS,VIDEO
<62319,37,18:08:21,00:00:00,1054.65,214.8,-0.3,35,3.27,0.000000,0.000000,0.0,INIS,282,346,41,DONUS,VIDEO
<62319,38,18:08:21,00:00:00,1054.60,215.2,0.4,35,3.27,0.000000,0.000000,0.0,INIS,281,347,41,DONUS,VIDEO
<62319,39,18:08:21,00:00:00,1054.57,215.5,0.3,35,3.27,0.000000,0.000000,0.0,INIS,283,346,44,DONUS,VIDEO
<62319,40,18:08:21,00:00:00,1054.63,215.0,-0.5,35,3.27,0.000000,0.000000,0.0,INIS,280,351,39,DONUS,VIDEO
<62319,41,18:08:21,00:00:00,1054.65,214.8,-0.1,35,3.27,0.000000,0.000000,0.0,INIS,279,356,36,DONUS,VIDEO
<62319,42,18:08:21,00:00:00,1054.57,215.5,0.7,35,3.26,0.000000,0.000000,0.0,INIS,278,358,36,DONUS,VIDEO
<62319,43,18:08:21,00:00:00,1054.46,216.4,0.9,35,3.27,0.000000,0.000000,0.0,INIS,278,335,35,DONUS,VIDEO
<62319,44,18:08:21,00:00:00,1054.55,215.6,-0.8,35,3.27,0.000000,0.000000,0.0,INIS,277,357,33,DONUS,VIDEO
<62319,45,18:08:21,00:00:00,1054.49,216.1,0.5,35,3.27,0.000000,0.000000,0.0,INIS,277,358,33,DONUS,VIDEO
<62319,46,18:08:21,00:00:00,1054.44,216.6,0.5,35,3.27,0.000000,0.000000,0.0,INIS,277,205,34,DONUS,VIDEO
<62319,47,18:08:21,00:00:00,1054.46,216.4,-0.2,35,3.27,0.000000,0.000000,0.0,INIS,278,32,34,DONUS,VIDEO
<62319,48,18:08:21,00:00:00,1054.45,216.5,0.1,35,3.27,0.000000,0.000000,0.0,INIS,278,18,35,DONUS,VIDEO
<62319,49,18:08:21,00:00:00,1054.38,217.1,0.6,35,3.27,0.000000,0.000000,0.0,INIS,277,67,35,DONUS,VIDEO
<62319,50,18:08:21,00:00:00,1054.32,217.6,0.5,35,3.27,0.000000,0.000000,0.0,INIS,277,74,34,DONUS,VIDEO
<62319,51,18:08:21,00:00:00,1054.28,217.9,0.3,35,3.27,0.000000,0.000000,0.0,INIS,277,242,33,DONUS,VIDEO
<62319,52,18:08:21,00:00:00,1054.29,217.8,-0.1,35,3.26,0.000000,0.000000,0.0,INIS,276,358,32,DONUS,VIDEO
<62319,53,18:08:21,00:00:00,1054.24,218.2,0.4,35,3.27,0.000000,0.000000,0.0,INIS,276,350,32,DONUS,VIDEO
<62319,54,18:08:21,00:00:00,1054.23,218.4,0.1,35,3.27,0.000000,0.000000,0.0,INIS,277,356,33,DONUS,VIDEO
<62319,55,18:08:21,00:00:00,1054.22,218.4,0.1,35,3.27,0.000000,0.000000,0.0,INIS,277,348,33,DONUS,VIDEO
<62319,56,18:08:21,00:00:00,1054.11,219.3,0.9,35,3.27,0.000000,0.000000,0.0,INIS,277,355,32,DONUS,VIDEO
<62319,57,18:08:21,00:00:00,1054.20,218.6,-0.7,35,3.27,0.000000,0.000000,0.0,INIS,277,349,33,DONUS,VIDEO
<62319,58,18:08:21,00:00:00,1054.13,219.1,0.5,35,3.27,0.000000,0.000000,0.0,INIS,277,355,32,DONUS,VIDEO
<62319,59,18:08:21,00:00:00,1054.07,219.6,0.5,35,3.27,0.000000,0.000000,0.0,INIS,277,356,31,DONUS,VIDEO
<62319,60,18:08:21,00:00:00,1054.07,219.7,0.0,35,3.27,0.000000,0.000000,0.0,INIS,277,357,32,DONUS,VIDEO
<62319,61,18:08:21,00:00:00,1054.01,220.2,0.5,35,3.27,0.000000,0.000000,0.0,INIS,277,350,32,DONUS,VIDEO
<62319,62,18:08:21,00:00:00,1054.04,219.9,-0.3,35,3.27,0.000000,0.000000,0.0,INIS,277,356,32,DONUS,VIDEO
<62319,63,18:08:21,00:00:00,1053.97,220.5,0.6,35,3.27,0.000000,0.000000,0.0,INIS,280,354,39,DONUS,VIDEO
<62319,64,18:08:21,00:00:00,1054.00,220.3,-0.2,35,3.27,0.000000,0.000000,0.0,INIS,282,353,42,DONUS,VIDEO
<62319,65,18:08:21,00:00:00,1053.90,221.1,0.8,35,3.27,0.000000,0.000000,0.0,INIS,280,352,39,DONUS,VIDEO
<62319,66,18:08:21,00:00:00,1053.96,220.6,-0.5,35,3.27,0.000000,0.000000,0.0,INIS,281,353,41,DONUS,VIDEO
<62319,67,18:08:21,00:00:00,1053.92,221.0,0.4,35,3.27,0.000000,0.000000,0.0,INIS,281,355,41,DONUS,VIDEO
<62319,68,18:08:21,00:00:00,1053.85,221.5,0.6,35,3.27,0.000000,0.000000,0.0,INIS,281,357,41,DONUS,VIDEO
<62319,69,18:08:21,00:00:00,1053.87,221.4,-0.2,35,3.27,0.000000,0.000000,0.0,INIS,281,357,41,DONUS,VIDEO
<62319,70,18:08:21,00:00:00,1053.82,221.8,0.4,35,3.27,0.000000,0.000000,0.0,INIS,280,356,39,DONUS,VIDEO
<62319,71,18:08:21,00:00:00,1053.83,221.7,-0.1,35,3.27,0.000000,0.000000,0.0,INIS,279,357,39,DONUS,VIDEO
<62319,72,18:08:21,00:00:00,1053.77,222.2,0.5,35,3.27,0.000000,0.000000,0.0,INIS,279,357,38,DONUS,VIDEO
<62319,73,18:08:21,00:00:00,1053.74,222.5,0.3,35,3.26,0.000000,0.000000,0.0,INIS,279,357,37,DONUS,VIDEO
<62319,74,18:08:21,00:00:00,1053.75,222.4,-0.1,35,3.27,0.000000,0.000000,0.0,INIS,278,350,37,DONUS,VIDEO
<62319,75,18:08:21,00:00:00,1053.74,222.5,0.1,35,3.27,0.000000,0.000000,0.0,INIS,279,356,37,DONUS,VIDEO
<62319,76,18:08:21,00:00:00,1053.65,223.2,0.8,35,3.27,0.000000,0.000000,0.0,INIS,279,356,37,DONUS,VIDEO
<62319,77,18:08:21,00:00:00,1053.64,223.3,0.1,35,3.27,0.000000,0.000000,0.0,INIS,278,298,37,DONUS,VIDEO
<62319,78,18:08:21,00:00:00,1053.52,224.3,1.0,35,3.27,0.000000,0.000000,0.0,INIS,278,322,36,DONUS,VIDEO
<62319,79,18:08:21,00:00:00,1053.52,224.4,0.0,35,3.27,0.000000,0.000000,0.0,INIS,279,293,37,DONUS,VIDEO
<62319,80,18:08:21,00:00:00,1053.41,225.3,0.9,35,3.27,0.000000,0.000000,0.0,INIS,278,242,35,DONUS,VIDEO
<62319,81,18:08:21,00:00:00,1053.36,225.6,0.3,35,3.27,0.000000,0.000000,0.0,INIS,278,89,36,DONUS,VIDEO
<62319,82,18:08:21,00:00:00,1053.34,225.8,0.2,35,3.27,0.000000,0.000000,0.0,INIS,278,227,36,DONUS,VIDEO
<62319,83,18:08:21,00:00:00,1053.24,226.7,0.9,35,3.27,0.000000,0.000000,0.0,INIS,279,329,37,DONUS,VIDEO
<62319,84,18:08:21,00:00:00,1053.23,226.8,0.0,35,3.27,0.000000,0.000000,0.0,INIS,279,343,37,DONUS,VIDEO
<62319,85,18:08:21,00:00:00,1053.24,226.6,-0.1,35,3.27,0.000000,0.000000,0.0,INIS,278,357,35,DONUS,VIDEO
<62319,86,18:08:21,00:00:00,1053.22,226.8,0.2,35,3.27,0.000000,0.000000,0.0,INIS,278,350,35,DONUS,VIDEO
<62319,87,18:08:21,00:00:00,1053.18,227.2,0.3,35,3.27,0.000000,0.000000,0.0,INIS,277,350,33,DONUS,VIDEO
<62319,88,18:08:21,00:00:00,1053.14,227.5,0.4,35,3.27,0.000000,0.000000,0.0,INIS,278,356,36,DONUS,VIDEO
<62319,89,18:08:21,00:00:00,1053.12,227.7,0.1,35,3.27,0.000000,0.000000,0.0,INIS,278,256,36,DONUS,VIDEO
<62319,90,18:08:21,00:00:00,1053.06,228.2,0.5,35,3.27,0.000000,0.000000,0.0,INIS,279,285,38,DONUS,VIDEO
<62319,91,18:08:21,00:00:00,1053.07,228.1,-0.1,35,3.27,0.000000,0.000000,0.0,INIS,280,314,40,DONUS,VIDEO
<62319,92,18:08:21,00:00:00,1053.06,228.2,0.1,35,3.27,0.000000,0.000000,0.0,INIS,280,356,40,DONUS,VIDEO
<62319,93,18:08:21,00:00:00,1053.11,227.8,-0.4,35,3.27,0.000000,0.000000,0.0,INIS,279,285,40,DONUS,VIDEO
<62319,94,18:08:21,00:00:00,1053.08,228.0,0.2,35,3.27,0.000000,0.000000,0.0,INIS,281,355,42,DONUS,VIDEO
<62319,95,18:08:21,00:00:00,1053.09,228.0,-0.0,35,3.27,0.000000,0.000000,0.0,INIS,279,348,37,DONUS,VIDEO
<62319,96,18:08:21,00:00:00,1053.07,228.1,0.1,35,3.27,0.000000,0.000000,0.0,INIS,279,340,38,DONUS,VIDEO
<62319,97,18:08:21,00:00:00,1053.05,228.3,0.2,35,3.27,0.000000,0.000000,0.0,INIS,281,341,42,DONUS,VIDEO
<62319,98,18:08:21,00:00:00,1053.05,228.3,-0.0,35,3.27,0.000000,0.000000,0.0,INIS,283,97,46,DONUS,VIDEO
<62319,99,18:08:21,00:00:00,1053.08,228.1,-0.3,35,3.27,0.000000,0.000000,0.0,INIS,283,8,46,DONUS,VIDEO
<62319,100,18:08:21,00:00:00,1053.11,227.8,-0.3,35,3.27,0.000000,0.000000,0.0,INIS,283,10,46,DONUS,VIDEO
<62319,101,18:08:21,00:00:00,1053.14,227.5,-0.3,35,3.27,0.000000,0.000000,0.0,INIS,284,11,46,DONUS,VIDEO
<62319,102,18:08:21,00:00:00,1053.13,227.6,0.1,35,3.27,0.000000,0.000000,0.0,INIS,281,9,41,DONUS,VIDEO
<62319,103,18:08:21,00:00:00,1053.12,227.7,0.1,35,3.27,0.000000,0.000000,0.0,INIS,282,8,42,DONUS,VIDEO
<62319,104,18:08:21,00:00:00,1053.16,227.3,-0.4,35,3.27,0.000000,0.000000,0.0,INIS,282,13,43,DONUS,VIDEO
<62319,105,18:08:21,00:00:00,1053.18,227.2,-0.1,35,3.27,0.000000,0.000000,0.0,INIS,281,105,43,DONUS,VIDEO
<62319,106,18:08:21,00:00:00,1053.27,226.4,-0.8,35,3.27,0.000000,0.000000,0.0,INIS,278,347,36,DONUS,VIDEO
<62319,107,18:08:21,00:00:00,1053.20,227.0,0.6,35,3.27,0.000000,0.000000,0.0,INIS,279,338,36,DONUS,VIDEO
<62319,108,18:08:21,00:00:00,1053.36,225.7,-1.4,35,3.27,0.000000,0.000000,0.0,INIS,277,351,33,DONUS,VIDEO
<62319,109,18:08:21,00:00:00,1053.25,226.6,1.0,35,3.27,0.000000,0.000000,0.0,INIS,278,344,34,DONUS,VIDEO
<62319,110,18:08:21,00:00:00,1053.34,225.9,-0.8,35,3.26,0.000000,0.000000,0.0,INIS,278,351,35,DONUS,VIDEO
<62319,111,18:08:21,00:00:00,1053.26,226.5,0.6,35,3.27,0.000000,0.000000,0.0,INIS,279,352,37,DONUS,VIDEO
<62319,112,18:08:21,00:00:00,1053.30,226.2,-0.3,35,3.27,0.000000,0.000000,0.0,INIS,278,351,34,DONUS,VIDEO
<62319,113,18:08:21,00:00:00,1053.27,226.4,0.2,35,3.27,0.000000,0.000000,0.0,INIS,278,353,34,DONUS,VIDEO
<62319,114,18:08:21,00:00:00,1053.34,225.9,-0.6,35,3.27,0.000000,0.000000,0.0,INIS,277,275,33,DONUS,VIDEO
<62319,115,18:08:21,00:00:00,1053.32,226.0,0.1,35,3.27,0.000000,0.000000,0.0,INIS,277,299,32,DONUS,VIDEO
<62319,116,18:08:21,00:00:00,1053.36,225.6,-0.4,35,3.27,0.000000,0.000000,0.0,INIS,277,343,33,DONUS,VIDEO
<62319,117,18:08:21,00:00:00,1053.45,224.9,-0.7,35,3.27,0.000000,0.000000,0.0,INIS,277,358,32,DONUS,VIDEO
<62319,118,18:08:21,00:00:00,1053.34,225.8,0.9,35,3.27,0.000000,0.000000,0.0,INIS,277,358,33,DONUS,VIDEO
<62319,119,18:08:21,00:00:00,1053.39,225.4,-0.4,35,3.27,0.000000,0.000000,0.0,INIS,277,351,32,DONUS,VIDEO
<62319,120,18:08:21,00:00:00,1053.40,225.3,-0.1,35,3.26,0.000000,0.000000,0.0,INIS,278,209,46,DONUS,VIDEO
<62319,121,18:08:21,00:00:00,1053.42,225.2,-0.2,35,3.27,0.000000,0.000000,0.0,INIS,276,232,48,DONUS,VIDEO
<62319,122,18:08:21,00:00:00,1053.34,225.9,0.7,35,3.27,0.000000,0.000000,0.0,INIS,275,139,48,DONUS,VIDEO
<62319,123,18:08:21,00:00:00,1053.39,225.5,-0.4,35,3.26,0.000000,0.000000,0.0,INIS,275,181,44,DONUS,VIDEO
<62319,124,18:08:21,00:00:00,1053.41,225.2,-0.2,35,3.27,0.000000,0.000000,0.0,INIS,280,125,56,DONUS,VIDEO
<62319,125,18:08:21,00:00:00,1053.37,225.6,0.4,35,3.27,0.000000,0.000000,0.0,INIS,281,147,62,DONUS,VIDEO
<62319,126,18:08:21,00:00:00,1053.44,225.0,-0.6,35,3.27,0.000000,0.000000,0.0,INIS,285,94,62,DONUS,VIDEO
<62319,127,18:08:21,00:00:00,1053.46,224.9,-0.1,35,3.27,0.000000,0.000000,0.0,INIS,279,35,39,DONUS,VIDEO
<62319,128,18:08:21,00:00:00,1053.45,224.9,0.0,35,3.27,0.000000,0.000000,0.0,INIS,279,5,38,DONUS,VIDEO
<62319,129,18:08:21,00:00:00,1053.38,225.5,0.6,35,3.27,0.000000,0.000000,0.0,INIS,279,39,37,DONUS,VIDEO
<62319,130,18:08:21,00:00:00,1053.47,224.7,-0.8,35,3.27,0.000000,0.000000,0.0,INIS,278,356,36,DONUS,VIDEO
<62319,131,18:08:21,00:00:00,1053.53,224.3,-0.4,35,3.27,0.000000,0.000000,0.0,INIS,280,357,39,DONUS,VIDEO
<62319,132,18:08:21,00:00:00,1053.60,223.7,-0.6,35,3.27,0.000000,0.000000,0.0,INIS,282,355,44,DONUS,VIDEO
<62319,133,18:08:21,00:00:00,1053.58,223.8,0.1,35,3.27,0.000000,0.000000,0.0,INIS,282,290,44,DONUS,VIDEO
<62319,134,18:08:21,00:00:00,1053.67,223.1,-0.8,35,3.27,0.000000,0.000000,0.0,INIS,282,351,44,DONUS,VIDEO
<62319,135,18:08:21,00:00:00,1053.67,223.1,0.0,35,3.27,0.000000,0.000000,0.0,INIS,284,346,44,DONUS,VIDEO
<62319,136,18:08:21,00:00:00,1053.76,222.3,-0.8,35,3.27,0.000000,0.000000,0.0,INIS,282,347,41,DONUS,VIDEO
<62319,137,18:08:21,00:00:00,1053.77,222.2,-0.1,35,3.27,0.000000,0.000000,0.0,INIS,281,349,40,DONUS,VIDEO
<62319,138,18:08:21,00:00:00,1053.90,221.2,-1.0,35,3.27,0.000000,0.000000,0.0,INIS,280,350,39,DONUS,VIDEO
<62319,139,18:08:21,00:00:00,1053.90,221.1,-0.0,35,3.27,0.000000,0.000000,0.0,INIS,281,349,39,DONUS,VIDEO
<62319,140,18:08:21,00:00:00,1053.93,220.9,-0.2,35,3.27,0.000000,0.000000,0.0,INIS,275,349,27,DONUS,VIDEO
<62319,141,18:08:21,00:00:00,1054.00,220.3,-0.6,35,3.27,0.000000,0.000000,0.0,INIS,273,352,18,DONUS,VIDEO
<62319,142,18:08:21,00:00:00,1053.99,220.4,0.1,35,3.27,0.000000,0.000000,0.0,INIS,273,349,17,DONUS,VIDEO
<62319,143,18:08:21,00:00:00,1054.05,219.8,-0.5,35,3.27,0.000000,0.000000,0.0,INIS,273,356,17,DONUS,VIDEO
<62319,144,18:08:21,00:00:00,1054.03,220.0,0.2,35,3.27,0.000000,0.000000,0.0,INIS,273,227,19,DONUS,VIDEO
<62319,145,18:08:21,00:00:00,1054.10,219.4,-0.6,35,3.26,0.000000,0.000000,0.0,INIS,275,249,28,DONUS,VIDEO
<62319,146,18:08:21,00:00:00,1054.08,219.6,0.2,35,3.27,0.000000,0.000000,0.0,INIS,276,355,29,DONUS,VIDEO
<62319,147,18:08:21,00:00:00,1054.16,219.0,-0.7,35,3.27,0.000000,0.000000,0.0,INIS,276,350,29,DONUS,VIDEO
<62319,148,18:08:21,00:00:00,1054.20,218.6,-0.3,35,3.27,0.000000,0.000000,0.0,INIS,275,184,27,DONUS,VIDEO
<62319,149,18:08:21,00:00:00,1054.24,218.3,-0.4,35,3.27,0.000000,0.000000,0.0,INIS,275,292,27,DONUS,VIDEO
<62319,150,18:08:21,00:00:00,1054.24,218.2,-0.0,35,3.27,0.000000,0.000000,0.0,INIS,275,354,26,DONUS,VIDEO
<62319,151,18:08:21,00:00:00,1054.29,217.8,-0.4,35,3.27,0.000000,0.000000,0.0,INIS,276,348,28,DONUS,VIDEO
<62319,152,18:08:21,00:00:00,1054.37,217.2,-0.7,35,3.27,0.000000,0.000000,0.0,INIS,274,349,25,DONUS,VIDEO
<62319,153,18:08:21,00:00:00,1054.41,216.8,-0.4,35,3.27,0.000000,0.000000,0.0,INIS,276,347,28,DONUS,VIDEO
<62319,154,18:08:21,00:00:00,1054.46,216.4,-0.4,35,3.27,0.000000,0.000000,0.0,INIS,276,350,27,DONUS,VIDEO
<62319,155,18:08:21,00:00:00,1054.49,216.1,-0.3,35,3.27,0.000000,0.000000,0.0,INIS,275,350,24,DONUS,VIDEO
<62319,156,18:08:21,00:00:00,1054.47,216.3,0.2,35,3.27,0.000000,0.000000,0.0,INIS,274,349,23,DONUS,VIDEO
<62319,157,18:08:21,00:00:00,1054.56,215.5,-0.8,35,3.27,0.000000,0.000000,0.0,INIS,275,351,26,DONUS,VIDEO
<62319,158,18:08:21,00:00:00,1054.56,215.6,0.0,35,3.27,0.000000,0.000000,0.0,INIS,275,352,27,DONUS,VIDEO
<62319,159,18:08:21,00:00:00,1054.65,214.8,-0.8,35,3.27,0.000000,0.000000,0.0,INIS,274,351,24,DONUS,VIDEO
<62319,160,18:08:21,00:00:00,1054.70,214.4,-0.4,35,3.27,0.000000,0.000000,0.0,INIS,274,348,21,DONUS,VIDEO
<62319,161,18:08:21,00:00:00,1054.78,213.6,-0.7,35,3.26,0.000000,0.000000,0.0,INIS,273,350,18,DONUS,VIDEO
<62319,162,18:08:21,00:00:00,1054.78,213.7,0.1,35,3.27,0.000000,0.000000,0.0,INIS,272,296,17,DONUS,VIDEO
<62319,163,18:08:21,00:00:00,1054.90,212.6,-1.1,35,3.26,0.000000,0.000000,0.0,INIS,272,234,32,DONUS,VIDEO
<62319,164,18:08:21,00:00:00,1054.90,212.7,0.1,35,3.27,0.000000,0.000000,0.0,INIS,263,159,53,DONUS,VIDEO
<62319,165,18:08:21,00:00:00,1054.89,212.8,0.1,35,3.27,0.000000,0.000000,0.0,INIS,271,152,56,DONUS,VIDEO
<62319,166,18:08:21,00:00:00,1054.92,212.5,-0.3,35,3.27,0.000000,0.000000,0.0,INIS,276,288,60,DONUS,VIDEO
<62319,167,18:08:21,00:00:00,1054.94,212.3,-0.2,35,3.26,0.000000,0.000000,0.0,INIS,293,292,299,DONUS,VIDEO
<62319,168,18:08:21,00:00:00,1054.98,212.0,-0.3,35,3.27,0.000000,0.000000,0.0,INIS,158,270,306,DONUS,VIDEO
<62319,169,18:08:21,00:00:00,1055.04,211.5,-0.5,35,3.27,0.000000,0.000000,0.0,INIS,82,230,299,DONUS,VIDEO
<62319,170,18:08:21,00:00:00,1055.02,211.6,0.1,35,3.27,0.000000,0.000000,0.0,INIS,87,247,302,DONUS,VIDEO
<62319,171,18:08:21,00:00:00,1055.17,210.4,-1.2,35,3.27,0.000000,0.000000,0.0,INIS,86,268,314,DONUS,VIDEO
<62319,172,18:08:21,00:00:00,1055.10,211.0,0.5,35,3.27,0.000000,0.000000,0.0,INIS,82,298,320,DONUS,VIDEO
<62319,173,18:08:21,00:00:00,1055.07,211.2,0.3,35,3.27,0.000000,0.000000,0.0,INIS,81,337,332,DONUS,VIDEO
<62319,174,18:08:21,00:00:00,1055.03,211.6,0.4,35,3.27,0.000000,0.000000,0.0,INIS,244,310,243,DONUS,VIDEO
<62319,175,18:08:21,00:00:00,1054.69,214.5,2.9,35,3.27,0.000000,0.000000,0.0,INIS,274,48,17,DONUS,VIDEO
<62319,176,18:08:21,00:00:00,1054.84,213.2,-1.3,35,3.27,0.000000,0.000000,0.0,INIS,273,8,16,DONUS,VIDEO
<62319,177,18:08:21,00:00:00,1054.88,212.8,-0.4,35,3.27,0.000000,0.000000,0.0,INIS,272,14,13,DONUS,VIDEO
<62319,178,18:08:21,00:00:00,1054.91,212.6,-0.2,35,3.27,0.000000,0.000000,0.0,INIS,272,7,9,DONUS,VIDEO
<62319,179,18:08:21,00:00:00,1054.97,212.1,-0.5,35,3.27,0.000000,0.000000,0.0,INIS,272,6,12,DONUS,VIDEO
<62319,180,18:08:21,00:00:00,1055.08,211.2,-0.9,35,3.26,0.000000,0.000000,0.0,INIS,272,6,15,DONUS,VIDEO
<62319,181,18:08:21,00:00:00,1055.11,210.9,-0.3,35,3.27,0.000000,0.000000,0.0,INIS,272,5,15,DONUS,VIDEO
<62319,182,18:08:21,00:00:00,1055.13,210.7,-0.2,35,3.27,0.000000,0.000000,0.0,INIS,272,6,16,DONUS,VIDEO
<62319,183,18:08:21,00:00:00,1055.20,210.1,-0.6,35,3.27,0.000000,0.000000,0.0,INIS,273,23,25,DONUS,VIDEO
<62319,184,18:08:21,00:00:00,1055.21,210.1,-0.0,35,3.27,0.000000,0.000000,0.0,INIS,272,15,17,DONUS,VIDEO
<62319,185,18:08:21,00:00:00,1055.26,209.7,-0.4,35,3.27,0.000000,0.000000,0.0,INIS,271,43,15,DONUS,VIDEO
<62319,186,18:08:21,00:00:00,1055.30,209.3,-0.3,35,3.27,0.000000,0.000000,0.0,INIS,271,8,9,DONUS,VIDEO
<62319,187,18:08:21,00:00:00,1055.34,209.0,-0.3,35,3.27,0.000000,0.000000,0.0,INIS,271,12,12,DONUS,VIDEO
<62319,188,18:08:21,00:00:00,1055.39,208.5,-0.5,35,3.27,0.000000,0.000000,0.0,INIS,272,12,12,DONUS,VIDEO
<62319,189,18:08:21,00:00:00,1055.55,207.2,-1.3,35,3.27,0.000000,0.000000,0.0,INIS,272,7,12,DONUS,VIDEO
<62319,190,18:08:21,00:00:00,1055.51,207.6,0.4,35,3.27,0.000000,0.000000,0.0,INIS,272,8,14,DONUS,VIDEO
<62319,191,18:08:21,00:00:00,1055.54,207.3,-0.3,35,3.27,0.000000,0.000000,0.0,INIS,272,10,135,DONUS,VIDEO
<62319,192,18:08:21,00:00:00,1055.54,207.3,-0.1,35,3.27,0.000000,0.000000,0.0,INIS,272,14,227,DONUS,VIDEO
<62319,193,18:08:21,00:00:00,1055.67,206.2,-1.1,35,3.27,0.000000,0.000000,0.0,INIS,271,10,160,DONUS,VIDEO
<62319,194,18:08:21,00:00:00,1055.66,206.3,0.1,35,3.27,0.000000,0.000000,0.0,INIS,273,9,15,DONUS,VIDEO
<62319,195,18:08:21,00:00:00,1055.70,205.9,-0.4,35,3.27,0.000000,0.000000,0.0,INIS,271,13,19,DONUS,VIDEO
<62319,196,18:08:21,00:00:00,1055.79,205.2,-0.7,35,3.27,0.000000,0.000000,0.0,INIS,273,8,9,DONUS,VIDEO
<62319,197,18:08:21,00:00:00,1055.68,206.1,0.9,35,3.26,0.000000,0.000000,0.0,INIS,271,14,8,DONUS,VIDEO
<62319,198,18:08:21,00:00:00,1055.18,210.3,4.2,35,3.27,0.000000,0.000000,0.0,INIS,272,12,15,DONUS,VIDEO
<62319,199,18:08:21,00:00:00,1055.44,208.2,-2.1,35,3.27,0.000000,0.000000,0.0,INIS,271,10,6,DONUS,VIDEO
<62319,200,18:08:21,00:00:00,1055.45,208.0,-0.1,35,3.27,0.000000,0.000000,0.0,INIS,272,7,12,DONUS,VIDEO
<62319,201,18:08:21,00:00:00,1055.57,207.1,-1.0,35,3.27,0.000000,0.000000,0.0,INIS,272,14,15,DONUS,VIDEO
<62319,202,18:08:21,00:00:00,1055.62,206.6,-0.4,35,3.27,0.000000,0.000000,0.0,INIS,272,15,20,DONUS,VIDEO
<62319,203,18:08:21,00:00:00,1055.71,205.9,-0.7,35,3.27,0.000000,0.000000,0.0,INIS,272,17,20,DONUS,VIDEO
<62319,204,18:08:21,00:00:00,1055.76,205.4,-0.5,35,3.27,0.000000,0.000000,0.0,INIS,273,10,16,DONUS,VIDEO
<62319,205,18:08:21,00:00:00,1055.87,204.5,-0.9,35,3.26,0.000000,0.000000,0.0,INIS,272,10,16,DONUS,VIDEO
<62319,206,18:08:21,00:00:00,1055.85,204.7,0.2,35,3.27,0.000000,0.000000,0.0,INIS,273,10,18,DONUS,VIDEO
<62319,207,18:08:21,00:00:00,1055.92,204.1,-0.6,35,3.27,0.000000,0.000000,0.0,INIS,274,10,19,DONUS,VIDEO
<62319,208,18:08:21,00:00:00,1056.01,203.4,-0.7,36,3.27,0.000000,0.000000,0.0,INIS,274,9,20,DONUS,VIDEO
<62319,209,18:08:21,00:00:00,1056.06,202.9,-0.5,36,3.27,0.000000,0.000000,0.0,INIS,274,9,22,DONUS,VIDEO
<62319,210,18:08:21,00:00:00,1056.11,202.5,-0.4,36,3.27,0.000000,0.000000,0.0,INIS,274,9,20,DONUS,VIDEO
<62319,211,18:08:21,00:00:00,1056.25,201.3,-1.2,36,3.27,0.000000,0.000000,0.0,INIS,273,10,18,DONUS,VIDEO
<62319,212,18:08:21,00:00:00,1056.31,200.8,-0.5,36,3.26,0.000000,0.000000,0.0,INIS,273,26,19,DONUS,VIDEO
<62319,213,18:08:21,00:00:00,1056.42,199.9,-0.9,36,3.26,0.000000,0.000000,0.0,INIS,273,26,21,DONUS,VIDEO
<62319,214,18:08:21,00:00:00,1056.54,198.8,-1.1,36,3.27,0.000000,0.000000,0.0,INIS,273,10,20,DONUS,VIDEO
<62319,215,18:08:21,00:00:00,1056.62,198.2,-0.6,36,3.26,0.000000,0.000000,0.0,INIS,274,2,23,DONUS,VIDEO
<62319,216,18:08:21,00:00:00,1056.66,197.9,-0.3,36,3.27,0.000000,0.000000,0.0,INIS,274,53,24,DONUS,VIDEO
<62319,217,18:08:21,00:00:00,1056.72,197.3,-0.5,36,3.27,0.000000,0.000000,0.0,INIS,274,17,25,DONUS,VIDEO
<62319,218,18:08:21,00:00:00,1056.75,197.1,-0.3,36,3.27,0.000000,0.000000,0.0,INIS,274,6,24,DONUS,VIDEO
<62319,219,18:08:21,00:00:00,1056.83,196.4,-0.6,36,3.27,0.000000,0.000000,0.0,INIS,274,4,22,DONUS,VIDEO
<62319,220,18:08:21,00:00:00,1056.95,195.4,-1.0,36,3.27,0.000000,0.000000,0.0,INIS,274,10,24,DONUS,VIDEO
<62319,221,18:08:21,00:00:00,1057.03,194.7,-0.7,36,3.27,0.000000,0.000000,0.0,INIS,274,16,24,DONUS,VIDEO
<62319,222,18:08:21,00:00:00,1057.15,193.7,-1.0,36,3.27,0.000000,0.000000,0.0,INIS,273,5,20,DONUS,VIDEO
<62319,223,18:08:21,00:00:00,1057.19,193.3,-0.4,36,3.27,0.000000,0.000000,0.0,INIS,273,5,20,DONUS,VIDEO
<62319,224,18:08:21,00:00:00,1057.26,192.8,-0.5,36,3.27,0.000000,0.000000,0.0,INIS,273,5,21,DONUS,VIDEO
<62319,225,18:08:21,00:00:00,1057.31,192.4,-0.4,36,3.27,0.000000,0.000000,0.0,INIS,273,6,21,DONUS,VIDEO
<62319,226,18:08:21,00:00:00,1057.35,192.0,-0.3,36,3.27,0.000000,0.000000,0.0,INIS,273,5,21,DONUS,VIDEO
<62319,227,18:08:21,00:00:00,1057.48,190.9,-1.1,36,3.27,0.000000,0.000000,0.0,INIS,273,5,21,DONUS,VIDEO
<62319,228,18:08:21,00:00:00,1057.59,190.0,-0.9,36,3.27,0.000000,0.000000,0.0,INIS,273,6,21,DONUS,VIDEO
<62319,229,18:08:21,00:00:00,1057.58,190.1,0.1,36,3.27,0.000000,0.000000,0.0,INIS,273,4,20,DONUS,VIDEO
<62319,230,18:08:21,00:00:00,1057.68,189.2,-0.9,36,3.27,0.000000,0.000000,0.0,INIS,273,4,20,DONUS,VIDEO
<62319,231,18:08:21,00:00:00,1057.75,188.6,-0.6,36,3.26,0.000000,0.000000,0.0,INIS,273,11,20,DONUS,VIDEO
<62319,232,18:08:21,00:00:00,1057.80,188.2,-0.4,36,3.27,0.000000,0.000000,0.0,INIS,273,4,20,DONUS,VIDEO
<62319,233,18:08:21,00:00:00,1057.86,187.7,-0.5,36,3.27,0.000000,0.000000,0.0,INIS,273,4,19,DONUS,VIDEO
<62319,234,18:08:21,00:00:00,1057.90,187.4,-0.3,36,3.27,0.000000,0.000000,0.0,INIS,273,4,20,DONUS,VIDEO
<62319,235,18:08:21,00:00:00,1058.01,186.5,-0.9,36,3.27,0.000000,0.000000,0.0,INIS,273,5,19,DONUS,VIDEO
<62319,236,18:08:21,00:00:00,1058.02,186.3,-0.1,36,3.27,0.000000,0.000000,0.0,INIS,273,6,19,DONUS,VIDEO
<62319,237,18:08:21,00:00:00,1058.15,185.2,-1.1,36,3.27,0.000000,0.000000,0.0,INIS,273,6,20,DONUS,VIDEO
<62319,238,18:08:21,00:00:00,1058.29,184.1,-1.2,36,3.27,0.000000,0.000000,0.0,INIS,273,5,20,DONUS,VIDEO
<62319,239,18:08:21,00:00:00,1058.32,183.8,-0.2,36,3.27,0.000000,0.000000,0.0,INIS,273,5,20,DONUS,VIDEO
<62319,240,18:08:21,00:00:00,1058.39,183.2,-0.6,36,3.27,0.000000,0.000000,0.0,INIS,273,11,20,DONUS,VIDEO
<62319,241,18:08:21,00:00:00,1058.49,182.4,-0.8,36,3.27,0.000000,0.000000,0.0,INIS,273,4,20,DONUS,VIDEO
<62319,242,18:08:21,00:00:00,1058.48,182.5,0.1,36,3.27,0.000000,0.000000,0.0,INIS,273,11,20,DONUS,VIDEO
<62319,243,18:08:21,00:00:00,1058.57,181.7,-0.8,36,3.26,0.000000,0.000000,0.0,INIS,273,4,20,DONUS,VIDEO
<62319,244,18:08:21,00:00:00,1058.65,181.0,-0.7,36,3.27,0.000000,0.000000,0.0,INIS,273,10,20,DONUS,VIDEO
<62319,245,18:08:21,00:00:00,1058.70,180.6,-0.4,36,3.27,0.000000,0.000000,0.0,INIS,273,16,20,DONUS,VIDEO
<62319,246,18:08:21,00:00:00,1058.74,180.3,-0.3,36,3.27,0.000000,0.000000,0.0,INIS,273,67,21,DONUS,VIDEO
<62319,247,18:08:21,00:00:00,1058.81,179.7,-0.5,36,3.27,0.000000,0.000000,0.0,INIS,273,96,21,DONUS,VIDEO
<62319,248,18:08:21,00:00:00,1058.90,179.0,-0.8,36,3.27,0.000000,0.000000,0.0,INIS,273,53,21,DONUS,VIDEO
<62319,249,18:08:21,00:00:00,1058.95,178.5,-0.5,36,3.27,0.000000,0.000000,0.0,INIS,273,23,22,DONUS,VIDEO
<62319,250,18:08:21,00:00:00,1059.08,177.4,-1.1,36,3.27,0.000000,0.000000,0.0,INIS,273,17,21,DONUS,VIDEO
<62319,251,18:08:21,00:00:00,1059.11,177.2,-0.2,36,3.27,0.000000,0.000000,0.0,INIS,273,39,20,DONUS,VIDEO
<62319,252,18:08:21,00:00:00,1059.19,176.4,-0.7,36,3.27,0.000000,0.000000,0.0,INIS,273,293,20,DONUS,VIDEO
<62319,253,18:08:21,00:00:00,1059.23,176.2,-0.3,36,3.27,0.000000,0.000000,0.0,INIS,273,190,20,DONUS,VIDEO
<62319,254,18:08:21,00:00:00,1059.28,175.7,-0.4,36,3.27,0.000000,0.000000,0.0,INIS,274,333,21,DONUS,VIDEO
<62319,255,18:08:21,00:00:00,1059.37,174.9,-0.8,36,3.27,0.000000,0.000000,0.0,INIS,272,354,17,DONUS,VIDEO
<62319,256,18:08:21,00:00:00,1059.38,174.9,-0.0,36,3.27,0.000000,0.000000,0.0,INIS,273,352,16,DONUS,VIDEO
<62319,257,18:08:21,00:00:00,1059.17,176.6,1.7,36,3.27,0.000000,0.000000,0.0,INIS,274,350,21,DONUS,VIDEO
<62319,258,18:08:21,00:00:00,1059.09,177.4,0.7,36,3.27,0.000000,0.000000,0.0,INIS,275,353,26,DONUS,VIDEO
<62319,259,18:08:21,00:00:00,1059.11,177.1,-0.2,36,3.27,0.000000,0.000000,0.0,INIS,275,352,26,DONUS,VIDEO
<62319,260,18:08:21,00:00:00,1058.95,178.5,1.4,36,3.27,0.000000,0.000000,0.0,INIS,275,349,26,DONUS,VIDEO
<62319,261,18:08:21,00:00:00,1058.72,180.5,2.0,36,3.27,0.000000,0.000000,0.0,INIS,276,353,28,DONUS,VIDEO
<62319,262,18:08:21,00:00:00,1058.77,180.1,-0.4,36,3.27,0.000000,0.000000,0.0,INIS,276,354,29,DONUS,VIDEO
<62319,263,18:08:21,00:00:00,1058.61,181.3,1.3,36,3.27,0.000000,0.000000,0.0,INIS,275,351,26,DONUS,VIDEO
<62319,264,18:08:21,00:00:00,1058.73,180.4,-1.0,36,3.27,0.000000,0.000000,0.0,INIS,276,350,27,DONUS,VIDEO
<62319,265,18:08:21,00:00:00,1058.82,179.6,-0.8,36,3.26,0.000000,0.000000,0.0,INIS,276,352,28,DONUS,VIDEO
<62319,266,18:08:21,00:00:00,1058.94,178.6,-1.0,36,3.27,0.000000,0.000000,0.0,INIS,275,352,27,DONUS,VIDEO
<62319,267,18:08:21,00:00:00,1058.96,178.4,-0.2,36,3.27,0.000000,0.000000,0.0,INIS,274,325,26,DONUS,VIDEO
<62319,268,18:08:21,00:00:00,1059.09,177.4,-1.0,36,3.27,0.000000,0.000000,0.0,INIS,275,354,27,DONUS,VIDEO
<62319,269,18:08:21,00:00:00,1059.05,177.7,0.4,36,3.27,0.000000,0.000000,0.0,INIS,276,340,29,DONUS,VIDEO
<62319,270,18:08:21,00:00:00,1059.21,176.3,-1.4,36,3.27,0.000000,0.000000,0.0,INIS,276,354,29,DONUS,VIDEO
<62319,271,18:08:21,00:00:00,1059.28,175.7,-0.6,36,3.27,0.000000,0.000000,0.0,INIS,275,354,28,DONUS,VIDEO
<62319,272,18:08:21,00:00:00,1059.33,175.3,-0.4,36,3.27,0.000000,0.000000,0.0,INIS,275,356,29,DONUS,VIDEO
<62319,273,18:08:21,00:00:00,1059.39,174.7,-0.5,36,3.27,0.000000,0.000000,0.0,INIS,276,356,29,DONUS,VIDEO
<62319,274,18:08:21,00:00:00,1059.34,175.2,0.5,36,3.27,0.000000,0.000000,0.0,INIS,275,357,28,DONUS,VIDEO
<62319,275,18:08:21,00:00:00,1059.46,174.2,-1.0,36,3.27,0.000000,0.000000,0.0,INIS,276,356,28,DONUS,VIDEO
<62319,276,18:08:21,00:00:00,1059.55,173.4,-0.8,36,3.27,0.000000,0.000000,0.0,INIS,276,355,29,DONUS,VIDEO
<62319,277,18:08:21,00:00:00,1059.59,173.1,-0.4,36,3.27,0.000000,0.000000,0.0,INIS,275,354,28,DONUS,VIDEO
<62319,278,18:08:21,00:00:00,1059.66,172.5,-0.6,36,3.27,0.000000,0.000000,0.0,INIS,275,353,27,DONUS,VIDEO
<62319,279,18:08:21,00:00:00,1059.71,172.1,-0.4,36,3.27,0.000000,0.000000,0.0,INIS,276,349,29,DONUS,VIDEO
<62319,280,18:08:21,00:00:00,1059.73,171.9,-0.1,36,3.27,0.000000,0.000000,0.0,INIS,276,328,30,DONUS,VIDEO
<62319,281,18:08:21,00:00:00,1059.84,171.0,-1.0,36,3.27,0.000000,0.000000,0.0,INIS,276,357,30,DONUS,VIDEO
<62319,282,18:08:21,00:00:00,1059.91,170.4,-0.5,36,3.27,0.000000,0.000000,0.0,INIS,276,355,29,DONUS,VIDEO
<62319,283,18:08:21,00:00:00,1059.96,169.9,-0.5,36,3.27,0.000000,0.000000,0.0,INIS,276,356,29,DONUS,VIDEO
<62319,284,18:08:21,00:00:00,1060.00,169.6,-0.3,36,3.27,0.000000,0.000000,0.0,INIS,276,335,32,DONUS,VIDEO
<62319,285,18:08:21,00:00:00,1060.10,168.8,-0.8,36,3.27,0.000000,0.000000,0.0,INIS,276,351,31,DONUS,VIDEO
<62319,286,18:08:21,00:00:00,1060.15,168.4,-0.4,36,3.27,0.000000,0.000000,0.0,INIS,276,334,28,DONUS,VIDEO
<62319,287,18:08:21,00:00:00,1060.19,168.0,-0.4,36,3.27,0.000000,0.000000,0.0,INIS,275,353,27,DONUS,VIDEO
<62319,288,18:08:21,00:00:00,1060.26,167.4,-0.5,36,3.27,0.000000,0.000000,0.0,INIS,274,357,25,DONUS,VIDEO
<62319,289,18:08:21,00:00:00,1060.28,167.3,-0.2,36,3.27,0.000000,0.000000,0.0,INIS,275,140,26,DONUS,VIDEO
<62319,290,18:08:21,00:00:00,1060.37,166.5,-0.8,36,3.27,0.000000,0.000000,0.0,INIS,274,249,27,DONUS,VIDEO
<62319,291,18:08:21,00:00:00,1060.42,166.1,-0.4,37,3.27,0.000000,0.000000,0.0,INIS,274,235,24,DONUS,VIDEO
<62319,292,18:08:21,00:00:00,1060.52,165.2,-0.8,37,3.27,0.000000,0.000000,0.0,INIS,275,125,25,DONUS,VIDEO
<62319,293,18:08:21,00:00:00,1060.50,165.4,0.2,37,3.26,0.000000,0.000000,0.0,INIS,275,119,26,DONUS,VIDEO
<62319,294,18:08:21,00:00:00,1060.55,165.0,-0.5,37,3.27,0.000000,0.000000,0.0,INIS,274,9,24,DONUS,VIDEO
<62319,295,18:08:21,00:00:00,1060.59,164.7,-0.3,37,3.27,0.000000,0.000000,0.0,INIS,274,25,24,DONUS,VIDEO
<62319,296,18:08:21,00:00:00,1060.70,163.7,-1.0,37,3.27,0.000000,0.000000,0.0,INIS,274,4,25,DONUS,VIDEO
<62319,297,18:08:21,00:00:00,1060.78,163.1,-0.7,37,3.27,0.000000,0.000000,0.0,INIS,275,4,26,DONUS,VIDEO
<62319,298,18:08:21,00:00:00,1060.84,162.6,-0.5,37,3.27,0.000000,0.000000,0.0,INIS,276,26,31,DONUS,VIDEO
<62319,299,18:08:21,00:00:00,1060.85,162.5,-0.1,37,3.27,0.000000,0.000000,0.0,INIS,275,4,29,DONUS,VIDEO
<62319,300,18:08:21,00:00:00,1060.90,162.0,-0.5,37,3.27,0.000000,0.000000,0.0,INIS,276,97,30,DONUS,VIDEO
<62319,301,18:08:21,00:00:00,1060.92,161.8,-0.2,37,3.27,0.000000,0.000000,0.0,INIS,274,255,26,DONUS,VIDEO
<62319,302,18:08:21,00:00:00,1060.99,161.3,-0.6,37,3.27,0.000000,0.000000,0.0,INIS,275,353,25,DONUS,VIDEO
<62319,303,18:08:21,00:00:00,1060.96,161.5,0.2,37,3.27,0.000000,0.000000,0.0,INIS,274,250,22,DONUS,VIDEO
<62319,304,18:08:21,00:00:00,1061.06,160.7,-0.8,37,3.27,0.000000,0.000000,0.0,INIS,275,14,26,DONUS,VIDEO
<62319,305,18:08:21,00:00:00,1061.07,160.6,-0.1,37,3.27,0.000000,0.000000,0.0,INIS,273,11,20,DONUS,VIDEO
<62319,306,18:08:21,00:00:00,1061.17,159.7,-0.8,37,3.27,0.000000,0.000000,0.0,INIS,275,9,25,DONUS,VIDEO
<62319,307,18:08:21,00:00:00,1061.10,160.3,0.6,37,3.27,0.000000,0.000000,0.0,INIS,276,61,29,DONUS,VIDEO
<62319,308,18:08:21,00:00:00,1061.07,160.6,0.2,37,3.27,0.000000,0.000000,0.0,INIS,275,5,28,DONUS,VIDEO
<62319,309,18:08:21,00:00:00,1061.04,160.9,0.3,37,3.27,0.000000,0.000000,0.0,INIS,275,11,27,DONUS,VIDEO
<62319,310,18:08:21,00:00:00,1060.98,161.3,0.5,37,3.27,0.000000,0.000000,0.0,INIS,275,5,27,DONUS,VIDEO
<62319,311,18:08:21,00:00:00,1061.05,160.7,-0.6,37,3.27,0.000000,0.000000,0.0,INIS,274,3,24,DONUS,VIDEO
<62319,312,18:08:21,00:00:00,1061.08,160.5,-0.3,37,3.27,0.000000,0.000000,0.0,INIS,275,12,28,DONUS,VIDEO
<62319,313,18:08:21,00:00:00,1061.05,160.8,0.3,37,3.27,0.000000,0.000000,0.0,INIS,276,18,30,DONUS,VIDEO
<62319,314,18:08:21,00:00:00,1061.06,160.7,-0.1,37,3.27,0.000000,0.000000,0.0,INIS,276,18,30,DONUS,VIDEO
<62319,315,18:08:21,00:00:00,1061.02,161.0,0.3,37,3.27,0.000000,0.000000,0.0,INIS,276,19,31,DONUS,VIDEO
<62319,316,18:08:21,00:00:00,1061.11,160.3,-0.8,37,3.27,0.000000,0.000000,0.0,INIS,276,5,31,DONUS,VIDEO
<62319,317,18:08:21,00:00:00,1061.02,161.0,0.8,37,3.27,0.000000,0.000000,0.0,INIS,277,5,31,DONUS,VIDEO
<62319,318,18:08:21,00:00:00,1061.00,161.2,0.2,37,3.27,0.000000,0.000000,0.0,INIS,277,4,33,DONUS,VIDEO
<62319,319,18:08:21,00:00:00,1060.88,162.2,1.0,37,3.27,0.000000,0.000000,0.0,INIS,278,5,34,DONUS,VIDEO
<62319,320,18:08:21,00:00:00,1060.84,162.6,0.4,37,3.27,0.000000,0.000000,0.0,INIS,278,5,34,DONUS,VIDEO
<62319,321,18:08:21,00:00:00,1060.67,163.9,1.4,37,3.27,0.000000,0.000000,0.0,INIS,277,4,32,DONUS,VIDEO
<62319,322,18:08:21,00:00:00,1060.51,165.3,1.4,37,3.27,0.000000,0.000000,0.0,INIS,276,5,30,DONUS,VIDEO
<62319,323,18:08:21,00:00:00,1060.62,164.4,-0.9,37,3.27,0.000000,0.000000,0.0,INIS,276,5,28,DONUS,VIDEO
<62319,324,18:08:21,00:00:00,1060.54,165.0,0.7,37,3.27,0.000000,0.000000,0.0,INIS,276,4,28,DONUS,VIDEO
<62319,325,18:08:21,00:00:00,1060.33,166.8,1.8,36,3.27,0.000000,0.000000,0.0,INIS,276,5,29,DONUS,VIDEO
<62319,326,18:08:21,00:00:00,1060.40,166.2,-0.6,36,3.27,0.000000,0.000000,0.0,INIS,276,5,28,DONUS,VIDEO
<62319,327,18:08:21,00:00:00,1060.34,166.7,0.5,36,3.27,0.000000,0.000000,0.0,INIS,276,5,28,DONUS,VIDEO
<62319,328,18:08:21,00:00:00,1060.37,166.5,-0.2,36,3.27,0.000000,0.000000,0.0,INIS,275,84,48,DONUS,VIDEO
<62319,329,18:08:21,00:00:00,1060.25,167.5,1.0,36,3.27,0.000000,0.000000,0.0,INIS,277,104,40,DONUS,VIDEO
<62319,330,18:08:21,00:00:00,1060.22,167.8,0.3,36,3.27,0.000000,0.000000,0.0,INIS,270,157,88,DONUS,VIDEO
<62319,331,18:08:21,00:00:00,1060.10,168.8,1.0,36,3.27,0.000000,0.000000,0.0,INIS,273,137,91,DONUS,VIDEO
<62319,332,18:08:21,00:00:00,1060.06,169.2,0.4,36,3.27,0.000000,0.000000,0.0,INIS,277,76,34,DONUS,VIDEO
<62319,333,18:08:21,00:00:00,1060.13,168.5,-0.6,36,3.27,0.000000,0.000000,0.0,INIS,275,12,28,DONUS,VIDEO
<62319,334,18:08:21,00:00:00,1060.07,169.0,0.5,36,3.27,0.000000,0.000000,0.0,INIS,276,7,28,DONUS,VIDEO
<62319,335,18:08:21,00:00:00,1060.13,168.6,-0.4,36,3.27,0.000000,0.000000,0.0,INIS,276,9,29,DONUS,VIDEO
<62319,336,18:08:21,00:00:00,1060.08,169.0,0.4,36,3.27,0.000000,0.000000,0.0,INIS,276,13,28,DONUS,VIDEO
<62319,337,18:08:21,00:00:00,1060.07,169.1,0.1,36,3.27,0.000000,0.000000,0.0,INIS,276,11,26,DONUS,VIDEO
<62319,338,18:08:21,00:00:00,1060.10,168.8,-0.3,36,3.27,0.000000,0.000000,0.0,INIS,275,10,26,DONUS,VIDEO
<62319,339,18:08:21,00:00:00,1060.10,168.8,0.0,36,3.27,0.000000,0.000000,0.0,INIS,276,15,28,DONUS,VIDEO
<62319,340,18:08:21,00:00:00,1059.93,170.2,1.4,36,3.27,0.000000,0.000000,0.0,INIS,277,11,30,DONUS,VIDEO
<62319,341,18:08:21,00:00:00,1059.92,170.3,0.1,36,3.27,0.000000,0.000000,0.0,INIS,277,12,29,DONUS,VIDEO
<62319,342,18:08:21,00:00:00,1060.06,169.1,-1.2,36,3.27,0.000000,0.000000,0.0,INIS,276,12,28,DONUS,VIDEO
<62319,343,18:08:21,00:00:00,1059.99,169.7,0.6,36,3.27,0.000000,0.000000,0.0,INIS,276,13,27,DONUS,VIDEO
<62319,344,18:08:21,00:00:00,1059.94,170.1,0.4,36,3.27,0.000000,0.000000,0.0,INIS,277,13,30,DONUS,VIDEO
<62319,345,18:08:21,00:00:00,1060.05,169.2,-0.9,36,3.27,0.000000,0.000000,0.0,INIS,277,16,29,DONUS,VIDEO
<62319,346,18:08:21,00:00:00,1060.10,168.8,-0.4,36,3.27,0.000000,0.000000,0.0,INIS,277,13,31,DONUS,VIDEO
<62319,347,18:08:21,00:00:00,1060.09,168.9,0.1,36,3.27,0.000000,0.000000,0.0,INIS,277,9,33,DONUS,VIDEO
<62319,348,18:08:21,00:00:00,1060.15,168.3,-0.5,36,3.27,0.000000,0.000000,0.0,INIS,277,9,33,DONUS,VIDEO
<62319,349,18:08:21,00:00:00,1060.23,167.7,-0.6,36,3.27,0.000000,0.000000,0.0,INIS,277,11,32,DONUS,VIDEO
<62319,350,18:08:21,00:00:00,1060.22,167.8,0.1,36,3.27,0.000000,0.000000,0.0,INIS,278,11,33,DONUS,VIDEO
<62319,351,18:08:21,00:00:00,1060.21,167.9,0.1,36,3.27,0.000000,0.000000,0.0,INIS,278,10,33,DONUS,VIDEO
<62319,352,18:08:21,00:00:00,1060.26,167.5,-0.4,36,3.27,0.000000,0.000000,0.0,INIS,278,9,34,DONUS,VIDEO
<62319,353,18:08:21,00:00:00,1060.36,166.6,-0.9,37,3.27,0.000000,0.000000,0.0,INIS,279,11,35,DONUS,VIDEO
<62319,354,18:08:21,00:00:00,1060.25,167.6,1.0,36,3.27,0.000000,0.000000,0.0,INIS,278,8,32,DONUS,VIDEO
<62319,355,18:08:21,00:00:00,1060.24,167.6,0.0,36,3.27,0.000000,0.000000,0.0,INIS,277,8,32,DONUS,VIDEO
<62319,356,18:08:21,00:00:00,1060.15,168.4,0.8,36,3.27,0.000000,0.000000,0.0,INIS,278,10,33,DONUS,VIDEO
<62319,357,18:08:21,00:00:00,1060.11,168.7,0.4,36,3.27,0.000000,0.000000,0.0,INIS,278,12,34,DONUS,VIDEO
<62319,358,18:08:21,00:00:00,1060.15,168.4,-0.4,36,3.27,0.000000,0.000000,0.0,INIS,277,10,33,DONUS,VIDEO
<62319,359,18:08:21,00:00:00,1060.16,168.3,-0.1,36,3.27,0.000000,0.000000,0.0,INIS,278,7,33,DONUS,VIDEO
<62319,360,18:08:21,00:00:00,1060.08,169.0,0.7,36,3.27,0.000000,0.000000,0.0,INIS,277,6,33,DONUS,VIDEO
<62319,361,18:08:21,00:00:00,1060.01,169.6,0.6,36,3.27,0.000000,0.000000,0.0,INIS,278,7,33,DONUS,VIDEO
<62319,362,18:08:21,00:00:00,1059.99,169.8,0.2,36,3.27,0.000000,0.000000,0.0,INIS,278,8,34,DONUS,VIDEO
<62319,363,18:08:21,00:00:00,1059.83,171.1,1.3,36,3.27,0.000000,0.000000,0.0,INIS,279,9,35,DONUS,VIDEO
<62319,364,18:08:21,00:00:00,1059.73,171.9,0.9,36,3.26,0.000000,0.000000,0.0,INIS,278,10,34,DONUS,VIDEO
<62319,365,18:08:21,00:00:00,1059.72,172.0,0.1,36,3.27,0.000000,0.000000,0.0,INIS,279,10,34,DONUS,VIDEO
<62319,366,18:08:21,00:00:00,1059.58,173.2,1.2,36,3.27,0.000000,0.000000,0.0,INIS,278,10,35,DONUS,VIDEO
<62319,367,18:08:21,00:00:00,1059.65,172.6,-0.6,36,3.27,0.000000,0.000000,0.0,INIS,279,8,36,DONUS,VIDEO
<62319,368,18:08:21,00:00:00,1059.70,172.2,-0.5,36,3.27,0.000000,0.000000,0.0,INIS,279,8,37,DONUS,VIDEO
<62319,369,18:08:21,00:00:00,1059.75,171.8,-0.4,36,3.27,0.000000,0.000000,0.0,INIS,279,8,37,DONUS,VIDEO
<62319,370,18:08:21,00:00:00,1059.42,174.5,2.8,36,3.27,0.000000,0.000000,0.0,INIS,280,8,38,DONUS,VIDEO
<62319,371,18:08:21,00:00:00,1059.22,176.2,1.7,36,3.27,0.000000,0.000000,0.0,INIS,279,8,37,DONUS,VIDEO
<62319,372,18:08:21,00:00:00,1059.16,176.8,0.5,36,3.27,0.000000,0.000000,0.0,INIS,279,9,36,DONUS,VIDEO
<62319,373,18:08:21,00:00:00,1059.18,176.6,-0.2,36,3.27,0.000000,0.000000,0.0,INIS,279,11,36,DONUS,VIDEO
<62319,374,18:08:21,00:00:00,1059.25,176.0,-0.6,36,3.27,0.000000,0.000000,0.0,INIS,279,9,35,DONUS,VIDEO
<62319,375,18:08:21,00:00:00,1059.02,178.0,2.0,36,3.27,0.000000,0.000000,0.0,INIS,280,14,37,DONUS,VIDEO
<62319,376,18:08:21,00:00:00,1059.14,176.9,-1.0,36,3.27,0.000000,0.000000,0.0,INIS,279,12,36,DONUS,VIDEO
<62319,377,18:08:21,00:00:00,1059.18,176.6,-0.3,36,3.27,0.000000,0.000000,0.0,INIS,279,13,36,DONUS,VIDEO
<62319,378,18:08:21,00:00:00,1059.28,175.8,-0.9,36,3.27,0.000000,0.000000,0.0,INIS,280,6,38,DONUS,VIDEO
<62319,379,18:08:21,00:00:00,1059.21,176.3,0.5,36,3.27,0.000000,0.000000,0.0,INIS,280,4,38,DONUS,VIDEO
<62319,380,18:08:21,00:00:00,1059.16,176.8,0.5,36,3.27,0.000000,0.000000,0.0,INIS,279,14,38,DONUS,VIDEO
<62319,381,18:08:21,00:00:00,1059.20,176.4,-0.4,36,3.27,0.000000,0.000000,0.0,INIS,280,6,39,DONUS,VIDEO
<62319,382,18:08:21,00:00:00,1058.97,178.4,2.0,36,3.27,0.000000,0.000000,0.0,INIS,280,5,37,DONUS,VIDEO
<62319,383,18:08:21,00:00:00,1059.12,177.1,-1.3,36,3.26,0.000000,0.000000,0.0,INIS,279,7,37,DONUS,VIDEO
<62319,384,18:08:21,00:00:00,1059.27,175.8,-1.3,36,3.27,0.000000,0.000000,0.0,INIS,278,9,37,DONUS,VIDEO
<62319,385,18:08:21,00:00:00,1059.37,175.0,-0.8,36,3.27,0.000000,0.000000,0.0,INIS,279,8,36,DONUS,VIDEO
<62319,386,18:08:21,00:00:00,1059.37,175.0,0.0,36,3.27,0.000000,0.000000,0.0,INIS,278,5,34,DONUS,VIDEO
<62319,387,18:08:21,00:00:00,1059.47,174.2,-0.8,36,3.27,0.000000,0.000000,0.0,INIS,278,7,35,DONUS,VIDEO
<62319,388,18:08:21,00:00:00,1059.63,172.8,-1.4,36,3.27,0.000000,0.000000,0.0,INIS,279,10,37,DONUS,VIDEO
<62319,389,18:08:21,00:00:00,1059.65,172.6,-0.2,36,3.27,0.000000,0.000000,0.0,INIS,279,7,37,DONUS,VIDEO
<62319,390,18:08:21,00:00:00,1059.69,172.3,-0.4,36,3.27,0.000000,0.000000,0.0,INIS,279,10,37,DONUS,VIDEO
<62319,391,18:08:21,00:00:00,1059.47,174.1,1.9,36,3.27,0.000000,0.000000,0.0,INIS,280,10,38,DONUS,VIDEO
<62319,392,18:08:21,00:00:00,1059.40,174.7,0.6,36,3.27,0.000000,0.000000,0.0,INIS,278,5,33,DONUS,VIDEO
<62319,393,18:08:21,00:00:00,1059.36,175.0,0.3,36,3.27,0.000000,0.000000,0.0,INIS,277,5,32,DONUS,VIDEO
<62319,394,18:08:21,00:00:00,1059.15,176.8,1.8,36,3.27,0.000000,0.000000,0.0,INIS,277,6,39,DONUS,VIDEO
<62319,395,18:08:21,00:00:00,1059.22,176.3,-0.5,36,3.27,0.000000,0.000000,0.0,INIS,277,12,34,DONUS,VIDEO
<62319,396,18:08:21,00:00:00,1059.34,175.2,-1.1,36,3.27,0.000000,0.000000,0.0,INIS,278,32,34,DONUS,VIDEO
<62319,397,18:08:21,00:00:00,1059.20,176.5,1.2,36,3.27,0.000000,0.000000,0.0,INIS,277,11,33,DONUS,VIDEO
<62319,398,18:08:21,00:00:00,1059.34,175.3,-1.2,36,3.27,0.000000,0.000000,0.0,INIS,276,4,30,DONUS,VIDEO
<62319,399,18:08:21,00:00:00,1059.39,174.8,-0.4,36,3.27,0.000000,0.000000,0.0,INIS,277,4,31,DONUS,VIDEO
<62319,400,18:08:21,00:00:00,1059.49,174.0,-0.9,36,3.27,0.000000,0.000000,0.0,INIS,275,133,29,DONUS,VIDEO
<62319,401,18:08:21,00:00:00,1059.59,173.1,-0.8,36,3.26,0.000000,0.000000,0.0,INIS,276,271,29,DONUS,VIDEO
<62319,402,18:08:21,00:00:00,1059.65,172.6,-0.5,36,3.27,0.000000,0.000000,0.0,INIS,276,133,31,DONUS,VIDEO
<62319,403,18:08:21,00:00:00,1059.68,172.4,-0.2,36,3.27,0.000000,0.000000,0.0,INIS,278,5,35,DONUS,VIDEO
<62319,404,18:08:21,00:00:00,1059.74,171.9,-0.5,36,3.27,0.000000,0.000000,0.0,INIS,277,12,34,DONUS,VIDEO
<62319,405,18:08:21,00:00:00,1059.74,171.9,-0.0,36,3.27,0.000000,0.000000,0.0,INIS,277,5,33,DONUS,VIDEO
<62319,406,18:08:21,00:00:00,1059.89,170.6,-1.3,36,3.26,0.000000,0.000000,0.0,INIS,277,26,33,DONUS,VIDEO
<62319,407,18:08:21,00:00:00,1059.90,170.5,-0.1,36,3.27,0.000000,0.000000,0.0,INIS,277,5,33,DONUS,VIDEO
<62319,408,18:08:21,00:00:00,1060.01,169.6,-0.9,36,3.27,0.000000,0.000000,0.0,INIS,277,5,33,DONUS,VIDEO
<62319,409,18:08:21,00:00:00,1060.09,168.9,-0.7,36,3.27,0.000000,0.000000,0.0,INIS,277,61,33,DONUS,VIDEO
<62319,410,18:08:21,00:00:00,1060.11,168.7,-0.2,36,3.27,0.000000,0.000000,0.0,INIS,277,4,34,DONUS,VIDEO
<62319,411,18:08:21,00:00:00,1060.13,168.6,-0.2,36,3.27,0.000000,0.000000,0.0,INIS,279,14,31,DONUS,VIDEO
<62319,412,18:08:21,00:00:00,1060.27,167.4,-1.2,37,3.27,0.000000,0.000000,0.0,INIS,282,14,41,DONUS,VIDEO
<62319,413,18:08:21,00:00:00,1060.27,167.4,-0.0,37,3.27,0.000000,0.000000,0.0,INIS,281,13,41,DONUS,VIDEO
<62319,414,18:08:21,00:00:00,1060.31,167.0,-0.4,37,3.27,0.000000,0.000000,0.0,INIS,278,13,32,DONUS,VIDEO
<62319,415,18:08:21,00:00:00,1060.35,166.7,-0.4,37,3.27,0.000000,0.000000,0.0,INIS,279,11,34,DONUS,VIDEO
<62319,416,18:08:21,00:00:00,1060.39,166.4,-0.3,37,3.27,0.000000,0.000000,0.0,INIS,281,13,40,DONUS,VIDEO
<62319,417,18:08:21,00:00:00,1060.46,165.8,-0.6,37,3.27,0.000000,0.000000,0.0,INIS,282,13,40,DONUS,VIDEO
<62319,418,18:08:21,00:00:00,1060.44,165.9,0.1,37,3.27,0.000000,0.000000,0.0,INIS,281,12,39,DONUS,VIDEO
<62319,419,18:08:21,00:00:00,1060.50,165.5,-0.5,37,3.27,0.000000,0.000000,0.0,INIS,282,13,41,DONUS,VIDEO
<62319,420,18:08:21,00:00:00,1060.53,165.2,-0.3,37,3.27,0.000000,0.000000,0.0,INIS,284,16,44,DONUS,VIDEO
<62319,421,18:08:21,00:00:00,1060.37,166.5,1.3,37,3.27,0.000000,0.000000,0.0,INIS,285,16,46,DONUS,VIDEO
<62319,422,18:08:21,00:00:00,1060.39,166.3,-0.2,37,3.27,0.000000,0.000000,0.0,INIS,285,16,46,DONUS,VIDEO
<62319,423,18:08:21,00:00:00,1060.60,164.6,-1.8,37,3.27,0.000000,0.000000,0.0,INIS,284,14,44,DONUS,VIDEO
<62319,424,18:08:21,00:00:00,1060.32,167.0,2.4,37,3.27,0.000000,0.000000,0.0,INIS,274,8,24,DONUS,VIDEO
<62319,425,18:08:21,00:00:00,1060.56,164.9,-2.0,37,3.27,0.000000,0.000000,0.0,INIS,276,9,29,DONUS,VIDEO
<62319,426,18:08:21,00:00:00,1060.44,165.9,1.0,37,3.27,0.000000,0.000000,0.0,INIS,277,9,31,DONUS,VIDEO
<62319,427,18:08:21,00:00:00,1060.43,166.0,0.1,37,3.27,0.000000,0.000000,0.0,INIS,276,7,30,DONUS,VIDEO
<62319,428,18:08:21,00:00:00,1060.43,166.0,-0.0,37,3.27,0.000000,0.000000,0.0,INIS,277,7,32,DONUS,VIDEO
<62319,429,18:08:21,00:00:00,1060.48,165.6,-0.4,37,3.27,0.000000,0.000000,0.0,INIS,277,8,31,DONUS,VIDEO
<62319,430,18:08:21,00:00:00,1060.48,165.6,0.0,37,3.27,0.000000,0.000000,0.0,INIS,277,8,31,DONUS,VIDEO
<62319,431,18:08:21,00:00:00,1060.47,165.7,0.2,37,3.27,0.000000,0.000000,0.0,INIS,276,6,29,DONUS,VIDEO
<62319,432,18:08:21,00:00:00,1060.41,166.2,0.5,37,3.27,0.000000,0.000000,0.0,INIS,276,77,57,DONUS,VIDEO
<62319,433,18:08:21,00:00:00,1060.43,166.0,-0.2,37,3.27,0.000000,0.000000,0.0,INIS,277,135,63,DONUS,VIDEO
<62319,434,18:08:21,00:00:00,1060.41,166.2,0.2,37,3.27,0.000000,0.000000,0.0,INIS,278,185,74,DONUS,VIDEO
<62319,435,18:08:21,00:00:00,1060.22,167.8,1.6,37,3.27,0.000000,0.000000,0.0,INIS,273,174,53,DONUS,VIDEO
<62319,436,18:08:21,00:00:00,1060.24,167.6,-0.2,37,3.27,0.000000,0.000000,0.0,INIS,276,114,48,DONUS,VIDEO
<62319,437,18:08:21,00:00:00,1060.11,168.7,1.1,37,3.27,0.000000,0.000000,0.0,INIS,265,185,64,DONUS,VIDEO
<62319,438,18:08:21,00:00:00,1060.18,168.2,-0.6,36,3.27,0.000000,0.000000,0.0,INIS,277,128,37,DONUS,VIDEO
<62319,439,18:08:21,00:00:00,1060.15,168.4,0.2,36,3.27,0.000000,0.000000,0.0,INIS,276,96,28,DONUS,VIDEO
<62319,440,18:08:21,00:00:00,1060.13,168.5,0.2,36,3.27,0.000000,0.000000,0.0,INIS,278,5,34,DONUS,VIDEO
<62319,441,18:08:21,00:00:00,1059.80,171.3,2.8,36,3.27,0.000000,0.000000,0.0,INIS,278,17,31,DONUS,VIDEO
<62319,442,18:08:21,00:00:00,1059.75,171.8,0.5,36,3.27,0.000000,0.000000,0.0,INIS,282,19,38,DONUS,VIDEO
<62319,443,18:08:21,00:00:00,1059.72,172.0,0.2,36,3.27,0.000000,0.000000,0.0,INIS,279,18,37,DONUS,VIDEO
<62319,444,18:08:21,00:00:00,1059.72,172.1,0.1,36,3.27,0.000000,0.000000,0.0,INIS,284,7,43,DONUS,VIDEO
<62319,445,18:08:21,00:00:00,1059.71,172.1,0.0,36,3.27,0.000000,0.000000,0.0,INIS,290,6,57,DONUS,VIDEO
<62319,446,18:08:21,00:00:00,1059.73,171.9,-0.2,36,3.27,0.000000,0.000000,0.0,INIS,289,105,55,DONUS,VIDEO
<62319,447,18:08:21,00:00:00,1059.75,171.8,-0.1,36,3.27,0.000000,0.000000,0.0,INIS,281,34,38,DONUS,VIDEO
<62319,448,18:08:21,00:00:00,1059.66,172.5,0.7,36,3.27,0.000000,0.000000,0.0,INIS,274,13,24,DONUS,VIDEO
<62319,449,18:08:21,00:00:00,1059.60,173.0,0.5,36,3.27,0.000000,0.000000,0.0,INIS,275,183,25,DONUS,VIDEO
<62319,450,18:08:21,00:00:00,1059.60,173.1,0.1,36,3.27,0.000000,0.000000,0.0,INIS,271,269,12,DONUS,VIDEO
<62319,451,18:08:21,00:00:00,1059.57,173.3,0.2,36,3.27,0.000000,0.000000,0.0,INIS,271,169,12,DONUS,VIDEO
<62319,452,18:08:21,00:00:00,1059.54,173.6,0.3,36,3.27,0.000000,0.000000,0.0,INIS,276,21,325,DONUS,VIDEO
<62319,453,18:08:21,00:00:00,1059.52,173.7,0.2,36,3.27,0.000000,0.000000,0.0,INIS,273,63,119,DONUS,VIDEO
<62319,454,18:08:21,00:00:00,1059.50,173.9,0.2,36,3.27,0.000000,0.000000,0.0,INIS,274,314,23,DONUS,VIDEO
<62319,455,18:08:21,00:00:00,1059.54,173.6,-0.3,36,3.27,0.000000,0.000000,0.0,INIS,272,60,164,DONUS,VIDEO
<62319,456,18:08:21,00:00:00,1059.65,172.6,-0.9,36,3.27,0.000000,0.000000,0.0,INIS,279,33,344,DONUS,VIDEO
<62319,457,18:08:21,00:00:00,1059.72,172.0,-0.6,36,3.27,0.000000,0.000000,0.0,INIS,289,40,326,DONUS,VIDEO
<62319,458,18:08:21,00:00:00,1059.72,172.1,0.1,36,3.27,0.000000,0.000000,0.0,INIS,280,31,338,DONUS,VIDEO
<62319,459,18:08:21,00:00:00,1059.75,171.8,-0.3,36,3.27,0.000000,0.000000,0.0,INIS,290,39,318,DONUS,VIDEO
<62319,460,18:08:21,00:00:00,1059.76,171.7,-0.1,36,3.27,0.000000,0.000000,0.0,INIS,287,40,326,DONUS,VIDEO
<62319,461,18:08:21,00:00:00,1059.85,170.9,-0.8,36,3.27,0.000000,0.000000,0.0,INIS,284,41,320,DONUS,VIDEO
<62319,462,18:08:21,00:00:00,1059.93,170.3,-0.6,36,3.27,0.000000,0.000000,0.0,INIS,282,50,287,DONUS,VIDEO
<62319,463,18:08:21,00:00:00,1060.02,169.5,-0.8,36,3.27,0.000000,0.000000,0.0,INIS,299,61,109,DONUS,VIDEO
<62319,464,18:08:21,00:00:00,1060.05,169.2,-0.2,36,3.27,0.000000,0.000000,0.0,INIS,307,50,49,DONUS,VIDEO
<62319,465,18:08:21,00:00:00,1060.16,168.3,-0.9,37,3.27,0.000000,0.000000,0.0,INIS,302,15,67,DONUS,VIDEO
<62319,466,18:08:21,00:00:00,1060.26,167.5,-0.8,37,3.27,0.000000,0.000000,0.0,INIS,312,13,76,DONUS,VIDEO
<62319,467,18:08:21,00:00:00,1060.33,166.9,-0.6,37,3.27,0.000000,0.000000,0.0,INIS,315,7,77,DONUS,VIDEO
<62319,468,18:08:21,00:00:00,1060.43,166.0,-0.9,37,3.27,0.000000,0.000000,0.0,INIS,317,14,80,DONUS,VIDEO
<62319,469,18:08:21,00:00:00,1060.53,165.2,-0.9,37,3.27,0.000000,0.000000,0.0,INIS,309,19,72,DONUS,VIDEO
<62319,470,18:08:21,00:00:00,1060.62,164.4,-0.7,37,3.27,0.000000,0.000000,0.0,INIS,303,14,68,DONUS,VIDEO
